[
  {
    "dhv_id": "3127",
    "name": "Meloisey 1",
    "desc": "Meloisey SP 1, GS, O-SO",
    "dhv_link": "https://www.dhv.de/db2/details.php?qi=glp_details&popup=1&item=3127",
    "lon": 4.722919,
    "lat": 47.038544,
    "alt": 552
  },
  {
    "dhv_id": "4651",
    "name": "3 Riesen / Mühlenberg",
    "desc": "3 Riesen / Mühlenberg SP, GS, WSW",
    "dhv_link": "https://www.dhv.de/db2/details.php?qi=glp_details&popup=1&item=4651",
    "lon": 9.402703,
    "lat": 48.799444,
    "alt": 355
  },
  {
    "dhv_id": "5464",
    "name": "A Punta",
    "desc": "A Punta SP, GS, SO",
    "dhv_link": "https://www.dhv.de/db2/details.php?qi=glp_details&popup=1&item=5464",
    "lon": 9.441644,
    "lat": 42.240919,
    "alt": 500
  },
  {
    "dhv_id": "5178",
    "name": "A Xironda",
    "desc": "A Xironda SP, GS, SO",
    "dhv_link": "https://www.dhv.de/db2/details.php?qi=glp_details&popup=1&item=5178",
    "lon": -7.678675,
    "lat": 41.911461,
    "alt": 1123
  },
  {
    "dhv_id": "5099",
    "name": "Abant Günay",
    "desc": "Abant Güney, Abant Günay SP, GS und HG, S-SW",
    "dhv_link": "https://www.dhv.de/db2/details.php?qi=glp_details&popup=1&item=5099",
    "lon": 31.282333,
    "lat": 40.588058,
    "alt": 1424
  },
  {
    "dhv_id": "4114",
    "name": "Abant Kuzey",
    "desc": "Abant Kuzey SP, GS, NW-N",
    "dhv_link": "https://www.dhv.de/db2/details.php?qi=glp_details&popup=1&item=4114",
    "lon": 31.248956,
    "lat": 40.590197,
    "alt": 1529
  },
  {
    "dhv_id": "2942",
    "name": "Abantos",
    "desc": "Abantos SP, GS, SO",
    "dhv_link": "https://www.dhv.de/db2/details.php?qi=glp_details&popup=1&item=2942",
    "lon": -4.154533,
    "lat": 40.612117,
    "alt": 1694
  },
  {
    "dhv_id": "2594",
    "name": "Abdalajis NW",
    "desc": "Abdalajis NW SP, GS, NW-N",
    "dhv_link": "https://www.dhv.de/db2/details.php?qi=glp_details&popup=1&item=2594",
    "lon": -4.764361,
    "lat": 36.954194,
    "alt": 652
  },
  {
    "dhv_id": "2595",
    "name": "Abdalajis Süd",
    "desc": "Abdalajis Süd SP, GS und HG, S",
    "dhv_link": "https://www.dhv.de/db2/details.php?qi=glp_details&popup=1&item=2595",
    "lon": -4.720839,
    "lat": 36.931458,
    "alt": 734
  },
  {
    "dhv_id": "2878",
    "name": "Abedules",
    "desc": "Abedules SP, GS und HG, NO",
    "dhv_link": "https://www.dhv.de/db2/details.php?qi=glp_details&popup=1&item=2878",
    "lon": 0.469347,
    "lat": 42.525819,
    "alt": 1237
  },
  {
    "dhv_id": "4380",
    "name": "Abertysswg",
    "desc": "Abertysswg SP, GS und HG, W-NW",
    "dhv_link": "https://www.dhv.de/db2/details.php?qi=glp_details&popup=1&item=4380",
    "lon": -3.244667,
    "lat": 51.746372,
    "alt": 412
  },
  {
    "dhv_id": "3320",
    "name": "Accous 1",
    "desc": "Accous SP 1, GS und HG, SW-NW",
    "dhv_link": "https://www.dhv.de/db2/details.php?qi=glp_details&popup=1&item=3320",
    "lon": 0.572011,
    "lat": 42.979683,
    "alt": 1204
  },
  {
    "dhv_id": "4995",
    "name": "Accous 1",
    "desc": "Accous SP 1, GS und HG, W",
    "dhv_link": "https://www.dhv.de/db2/details.php?qi=glp_details&popup=1&item=4995",
    "lon": -0.571625,
    "lat": 42.981342,
    "alt": 1218
  },
  {
    "dhv_id": "4995",
    "name": "Accous 2",
    "desc": "Accous SP 2, GS und HG, SW",
    "dhv_link": "https://www.dhv.de/db2/details.php?qi=glp_details&popup=1&item=4995",
    "lon": -0.563131,
    "lat": 42.975764,
    "alt": 1181
  },
  {
    "dhv_id": "3320",
    "name": "Accous 2",
    "desc": "Accous SP 2, GS und HG, SW",
    "dhv_link": "https://www.dhv.de/db2/details.php?qi=glp_details&popup=1&item=3320",
    "lon": 0.5614,
    "lat": 42.975153,
    "alt": 1199
  },
  {
    "dhv_id": "4995",
    "name": "Accous 3",
    "desc": "Accous SP 3, GS, W",
    "dhv_link": "https://www.dhv.de/db2/details.php?qi=glp_details&popup=1&item=4995",
    "lon": -0.546942,
    "lat": 42.976986,
    "alt": 1592
  },
  {
    "dhv_id": "4658",
    "name": "Achadas da Cruz",
    "desc": "Achadas da Cruz SP, GS, NW-N",
    "dhv_link": "https://www.dhv.de/db2/details.php?qi=glp_details&popup=1&item=4658",
    "lon": -17.209619,
    "lat": 32.853136,
    "alt": 448
  },
  {
    "dhv_id": "5588",
    "name": "Achtopol",
    "desc": "Achtopol SP, GS und HG, NO",
    "dhv_link": "https://www.dhv.de/db2/details.php?qi=glp_details&popup=1&item=5588",
    "lon": 27.918075,
    "lat": 42.107097,
    "alt": 19
  },
  {
    "dhv_id": "1438",
    "name": "Adamsberg",
    "desc": "Adamsberg SP, GS und HG, O-S",
    "dhv_link": "https://www.dhv.de/db2/details.php?qi=glp_details&popup=1&item=1438",
    "lon": 10.199617,
    "lat": 46.987042,
    "alt": 2315
  },
  {
    "dhv_id": "4318",
    "name": "Addingham Moorside",
    "desc": "Addingham Moorside SP, GS, N",
    "dhv_link": "https://www.dhv.de/db2/details.php?qi=glp_details&popup=1&item=4318",
    "lon": -1.883189,
    "lat": 53.920314,
    "alt": 347
  },
  {
    "dhv_id": "4284",
    "name": "Addlebrough 1",
    "desc": "Addlebrough SP 1, GS, N",
    "dhv_link": "https://www.dhv.de/db2/details.php?qi=glp_details&popup=1&item=4284",
    "lon": -2.083683,
    "lat": 54.288678,
    "alt": 460
  },
  {
    "dhv_id": "4284",
    "name": "Addlebrough 2",
    "desc": "Addlebrough SP 2, GS, SW, NO-O",
    "dhv_link": "https://www.dhv.de/db2/details.php?qi=glp_details&popup=1&item=4284",
    "lon": -2.082608,
    "lat": 54.286064,
    "alt": 472
  },
  {
    "dhv_id": "573",
    "name": "Adelberg",
    "desc": "Adelberg SP, GS und HG, ONO-SSO",
    "dhv_link": "https://www.dhv.de/db2/details.php?qi=glp_details&popup=1&item=573",
    "lon": 7.960167,
    "lat": 49.216506,
    "alt": 540
  },
  {
    "dhv_id": "188",
    "name": "Adolzfurt",
    "desc": "Adolzfurt Hälden, Adolzfurt SP, GS und HG, W",
    "dhv_link": "https://www.dhv.de/db2/details.php?qi=glp_details&popup=1&item=188",
    "lon": 9.471306,
    "lat": 49.160552,
    "alt": 365
  },
  {
    "dhv_id": "257",
    "name": "Adorf / Wirmighausen",
    "desc": "Wirmighausen / Am Gürenberg /Adorf, Adorf / Wirmighausen SP, GS und HG, NW-N",
    "dhv_link": "https://www.dhv.de/db2/details.php?qi=glp_details&popup=1&item=257",
    "lon": 8.830476,
    "lat": 51.350812,
    "alt": 465
  },
  {
    "dhv_id": "2609",
    "name": "Adra",
    "desc": "Adra SP, GS und HG, SO-S",
    "dhv_link": "https://www.dhv.de/db2/details.php?qi=glp_details&popup=1&item=2609",
    "lon": -3.044581,
    "lat": 36.771444,
    "alt": 500
  },
  {
    "dhv_id": "4201",
    "name": "Adrasan 1",
    "desc": "Adrasan SP 1, GS, W",
    "dhv_link": "https://www.dhv.de/db2/details.php?qi=glp_details&popup=1&item=4201",
    "lon": 30.434308,
    "lat": 36.281308,
    "alt": 953
  },
  {
    "dhv_id": "4201",
    "name": "Adrasan 2",
    "desc": "Adrasan SP 2, GS, O",
    "dhv_link": "https://www.dhv.de/db2/details.php?qi=glp_details&popup=1&item=4201",
    "lon": 30.434936,
    "lat": 36.281258,
    "alt": 957
  },
  {
    "dhv_id": "2928",
    "name": "Ager 1",
    "desc": "Ager SP 1, GS und HG, S",
    "dhv_link": "https://www.dhv.de/db2/details.php?qi=glp_details&popup=1&item=2928",
    "lon": 0.736058,
    "lat": 42.035678,
    "alt": 1225
  },
  {
    "dhv_id": "2928",
    "name": "Ager 2",
    "desc": "Ager SP 2, GS und HG, S-SW",
    "dhv_link": "https://www.dhv.de/db2/details.php?qi=glp_details&popup=1&item=2928",
    "lon": 0.746167,
    "lat": 42.046339,
    "alt": 1567
  },
  {
    "dhv_id": "2928",
    "name": "Ager 3",
    "desc": "Ager SP 3, GS und HG, S-SW",
    "dhv_link": "https://www.dhv.de/db2/details.php?qi=glp_details&popup=1&item=2928",
    "lon": 0.747997,
    "lat": 42.045514,
    "alt": 1586
  },
  {
    "dhv_id": "2928",
    "name": "Ager 4",
    "desc": "Ager SP 4, GS, SW",
    "dhv_link": "https://www.dhv.de/db2/details.php?qi=glp_details&popup=1&item=2928",
    "lon": 0.766617,
    "lat": 42.039947,
    "alt": 1586
  },
  {
    "dhv_id": "3505",
    "name": "Aggtelek",
    "desc": "Aggtelek SP, GS und HG, SO",
    "dhv_link": "https://www.dhv.de/db2/details.php?qi=glp_details&popup=1&item=3505",
    "lon": 20.520222,
    "lat": 48.467567,
    "alt": 400
  },
  {
    "dhv_id": "4780",
    "name": "Agia Efthymia",
    "desc": "Agia Efthymia SP, GS, O",
    "dhv_link": "https://www.dhv.de/db2/details.php?qi=glp_details&popup=1&item=4780",
    "lon": 22.315558,
    "lat": 38.48845,
    "alt": 1035
  },
  {
    "dhv_id": "4794",
    "name": "Agios Dimitros",
    "desc": "Agios Dimitros SP, GS, SW",
    "dhv_link": "https://www.dhv.de/db2/details.php?qi=glp_details&popup=1&item=4794",
    "lon": 23.855328,
    "lat": 37.81055,
    "alt": 182
  },
  {
    "dhv_id": "4770",
    "name": "Agios Georgios",
    "desc": "Agios Georgios SP, GS und HG, NO",
    "dhv_link": "https://www.dhv.de/db2/details.php?qi=glp_details&popup=1&item=4770",
    "lon": 21.821592,
    "lat": 39.28425,
    "alt": 825
  },
  {
    "dhv_id": "4763",
    "name": "Agios Gordios",
    "desc": "Agios Gordios SP, GS, W-NW",
    "dhv_link": "https://www.dhv.de/db2/details.php?qi=glp_details&popup=1&item=4763",
    "lon": 19.858433,
    "lat": 39.538964,
    "alt": 363
  },
  {
    "dhv_id": "4807",
    "name": "Agios Pavlos",
    "desc": "Agios Pavlos SP, GS, SW",
    "dhv_link": "https://www.dhv.de/db2/details.php?qi=glp_details&popup=1&item=4807",
    "lon": 24.561692,
    "lat": 35.105719,
    "alt": 79
  },
  {
    "dhv_id": "3851",
    "name": "Agira",
    "desc": "Agira SP, GS, NO",
    "dhv_link": "https://www.dhv.de/db2/details.php?qi=glp_details&popup=1&item=3851",
    "lon": 14.5298,
    "lat": 37.655453,
    "alt": 786
  },
  {
    "dhv_id": "4852",
    "name": "Agnesberg",
    "desc": "Agnesberg SP, GS, SW-W",
    "dhv_link": "https://www.dhv.de/db2/details.php?qi=glp_details&popup=1&item=4852",
    "lon": 12.019233,
    "lat": 57.802631,
    "alt": 88
  },
  {
    "dhv_id": "2152",
    "name": "Agnis",
    "desc": "Agnis SP, GS und HG, SO",
    "dhv_link": "https://www.dhv.de/db2/details.php?qi=glp_details&popup=1&item=2152",
    "lon": 5.873161,
    "lat": 43.302325,
    "alt": 696
  },
  {
    "dhv_id": "2606",
    "name": "Aguadulce",
    "desc": "Aguadulce SP, GS, S-SW",
    "dhv_link": "https://www.dhv.de/db2/details.php?qi=glp_details&popup=1&item=2606",
    "lon": -2.569483,
    "lat": 36.823794,
    "alt": 285
  },
  {
    "dhv_id": "5188",
    "name": "Aguilarejo",
    "desc": "Aguilarejo SP, GS und HG, NW",
    "dhv_link": "https://www.dhv.de/db2/details.php?qi=glp_details&popup=1&item=5188",
    "lon": -4.613019,
    "lat": 41.750581,
    "alt": 846
  },
  {
    "dhv_id": "1807",
    "name": "Agy",
    "desc": "Agy SP, GS und HG, S-W",
    "dhv_link": "https://www.dhv.de/db2/details.php?qi=glp_details&popup=1&item=1807",
    "lon": 6.619006,
    "lat": 46.080072,
    "alt": 1256
  },
  {
    "dhv_id": "2974",
    "name": "Ahillos",
    "desc": "Ahillos SP, GS, N, S",
    "dhv_link": "https://www.dhv.de/db2/details.php?qi=glp_details&popup=1&item=2974",
    "lon": -4.030908,
    "lat": 37.599586,
    "alt": 1385
  },
  {
    "dhv_id": "4175",
    "name": "Ahir Dagi",
    "desc": "Ahir Dagi SP, GS, SO",
    "dhv_link": "https://www.dhv.de/db2/details.php?qi=glp_details&popup=1&item=4175",
    "lon": 36.872,
    "lat": 37.629711,
    "alt": 1794
  },
  {
    "dhv_id": "1232",
    "name": "Ahornach",
    "desc": "Ahornach Sand, Ahornach SP, GS und HG, S-SW",
    "dhv_link": "https://www.dhv.de/db2/details.php?qi=glp_details&popup=1&item=1232",
    "lon": 11.967673,
    "lat": 46.926044,
    "alt": 1425
  },
  {
    "dhv_id": "4040",
    "name": "Ai-Petri",
    "desc": "Ai-Petri SP, GS, SO",
    "dhv_link": "https://www.dhv.de/db2/details.php?qi=glp_details&popup=1&item=4040",
    "lon": 34.065483,
    "lat": 44.466856,
    "alt": 1198
  },
  {
    "dhv_id": "1683",
    "name": "Aiguille de Champeys",
    "desc": "Aiguille de Champeys SP, GS, SO",
    "dhv_link": "https://www.dhv.de/db2/details.php?qi=glp_details&popup=1&item=1683",
    "lon": 6.847361,
    "lat": 46.204117,
    "alt": 2016
  },
  {
    "dhv_id": "4182",
    "name": "Aiguille du Midi 1",
    "desc": "Aiguille Du Midi, Aiguille du Midi SP 1, GS, S",
    "dhv_link": "https://www.dhv.de/db2/details.php?qi=glp_details&popup=1&item=4182",
    "lon": 6.896667,
    "lat": 45.864444,
    "alt": 3473
  },
  {
    "dhv_id": "4182",
    "name": "Aiguille du Midi 2",
    "desc": "Aiguille Du Midi, Aiguille du Midi SP 2, GS, NW-N, SO",
    "dhv_link": "https://www.dhv.de/db2/details.php?qi=glp_details&popup=1&item=4182",
    "lon": 6.897222,
    "lat": 45.881111,
    "alt": 3587
  },
  {
    "dhv_id": "2141",
    "name": "Aiguines",
    "desc": "Aiguines SP, GS und HG, NW",
    "dhv_link": "https://www.dhv.de/db2/details.php?qi=glp_details&popup=1&item=2141",
    "lon": 6.256183,
    "lat": 43.779625,
    "alt": 1001
  },
  {
    "dhv_id": "4765",
    "name": "Ailias",
    "desc": "Ailias SP, GS, W-NW",
    "dhv_link": "https://www.dhv.de/db2/details.php?qi=glp_details&popup=1&item=4765",
    "lon": 20.455781,
    "lat": 39.472508,
    "alt": 571
  },
  {
    "dhv_id": "2706",
    "name": "Ailigas",
    "desc": "Ailigas SP, GS, S",
    "dhv_link": "https://www.dhv.de/db2/details.php?qi=glp_details&popup=1&item=2706",
    "lon": 25.987033,
    "lat": 69.424833,
    "alt": 563
  },
  {
    "dhv_id": "1382",
    "name": "Aineck",
    "desc": "Aineck SP, GS und HG, W-NW",
    "dhv_link": "https://www.dhv.de/db2/details.php?qi=glp_details&popup=1&item=1382",
    "lon": 13.637064,
    "lat": 47.057008,
    "alt": 2167
  },
  {
    "dhv_id": "2456",
    "name": "Aiolos 1",
    "desc": "Aiolos SP 1, GS und HG, S",
    "dhv_link": "https://www.dhv.de/db2/details.php?qi=glp_details&popup=1&item=2456",
    "lon": 24.166275,
    "lat": 41.166192,
    "alt": 476
  },
  {
    "dhv_id": "2456",
    "name": "Aiolos 2",
    "desc": "Aiolos SP 2, GS, SO",
    "dhv_link": "https://www.dhv.de/db2/details.php?qi=glp_details&popup=1&item=2456",
    "lon": 24.173436,
    "lat": 41.169225,
    "alt": 533
  },
  {
    "dhv_id": "2456",
    "name": "Aiolos 3",
    "desc": "Aiolos SP 3, HG, SO",
    "dhv_link": "https://www.dhv.de/db2/details.php?qi=glp_details&popup=1&item=2456",
    "lon": 24.175669,
    "lat": 41.170353,
    "alt": 549
  },
  {
    "dhv_id": "723",
    "name": "Aitern",
    "desc": "Aitern SP, GS, SO-S",
    "dhv_link": "https://www.dhv.de/db2/details.php?qi=glp_details&popup=1&item=723",
    "lon": 7.898161,
    "lat": 47.81135,
    "alt": 894
  },
  {
    "dhv_id": "2739",
    "name": "Aizkraukles",
    "desc": "Aizkraukles SP, GS und HG, SW",
    "dhv_link": "https://www.dhv.de/db2/details.php?qi=glp_details&popup=1&item=2739",
    "lon": 25.131864,
    "lat": 56.621628,
    "alt": 54
  },
  {
    "dhv_id": "5114",
    "name": "Akalan",
    "desc": "Akalan SP, GS, SW",
    "dhv_link": "https://www.dhv.de/db2/details.php?qi=glp_details&popup=1&item=5114",
    "lon": 27.503367,
    "lat": 38.483622,
    "alt": 834
  },
  {
    "dhv_id": "2439",
    "name": "Akarnanika",
    "desc": "Akarnanika SP, GS und HG, N, O, SW-W",
    "dhv_link": "https://www.dhv.de/db2/details.php?qi=glp_details&popup=1&item=2439",
    "lon": 20.980536,
    "lat": 38.806181,
    "alt": 1398
  },
  {
    "dhv_id": "4110",
    "name": "Akköy",
    "desc": "Akköy SP, GS, NW",
    "dhv_link": "https://www.dhv.de/db2/details.php?qi=glp_details&popup=1&item=4110",
    "lon": 29.195836,
    "lat": 40.635833,
    "alt": 144
  },
  {
    "dhv_id": "4193",
    "name": "Akpinar",
    "desc": "Akpinar SP, GS, SO",
    "dhv_link": "https://www.dhv.de/db2/details.php?qi=glp_details&popup=1&item=4193",
    "lon": 34.026811,
    "lat": 36.845772,
    "alt": 1992
  },
  {
    "dhv_id": "2732",
    "name": "Akrafjall",
    "desc": "Akrafjall SP, GS, NW",
    "dhv_link": "https://www.dhv.de/db2/details.php?qi=glp_details&popup=1&item=2732",
    "lon": -21.922703,
    "lat": 64.346217,
    "alt": 580
  },
  {
    "dhv_id": "2487",
    "name": "Akres",
    "desc": "Akres SP, GS und HG, S",
    "dhv_link": "https://www.dhv.de/db2/details.php?qi=glp_details&popup=1&item=2487",
    "lon": 23.344731,
    "lat": 38.064011,
    "alt": 516
  },
  {
    "dhv_id": "4153",
    "name": "Aksehir",
    "desc": "Aksehir SP, GS, NO",
    "dhv_link": "https://www.dhv.de/db2/details.php?qi=glp_details&popup=1&item=4153",
    "lon": 31.418889,
    "lat": 38.328125,
    "alt": 1552
  },
  {
    "dhv_id": "4098",
    "name": "Akyazi",
    "desc": "Akyazi SP, GS, NW-NO",
    "dhv_link": "https://www.dhv.de/db2/details.php?qi=glp_details&popup=1&item=4098",
    "lon": 39.650994,
    "lat": 40.993117,
    "alt": 117
  },
  {
    "dhv_id": "4197",
    "name": "Alanya 1",
    "desc": "Alanya SP 1, GS, SW",
    "dhv_link": "https://www.dhv.de/db2/details.php?qi=glp_details&popup=1&item=4197",
    "lon": 31.978869,
    "lat": 36.566375,
    "alt": 363
  },
  {
    "dhv_id": "4197",
    "name": "Alanya 2",
    "desc": "Alanya SP 2, GS, S",
    "dhv_link": "https://www.dhv.de/db2/details.php?qi=glp_details&popup=1&item=4197",
    "lon": 31.970806,
    "lat": 36.576364,
    "alt": 614
  },
  {
    "dhv_id": "5111",
    "name": "Alayunt",
    "desc": "Alayunt SP, GS, SW",
    "dhv_link": "https://www.dhv.de/db2/details.php?qi=glp_details&popup=1&item=5111",
    "lon": 30.108925,
    "lat": 39.394503,
    "alt": 987
  },
  {
    "dhv_id": "5234",
    "name": "Albaricoques",
    "desc": "Albaricoques SP, GS, SW-W",
    "dhv_link": "https://www.dhv.de/db2/details.php?qi=glp_details&popup=1&item=5234",
    "lon": -2.091589,
    "lat": 36.858328,
    "alt": 214
  },
  {
    "dhv_id": "2685",
    "name": "Albena",
    "desc": "Albena SP, GS, SO",
    "dhv_link": "https://www.dhv.de/db2/details.php?qi=glp_details&popup=1&item=2685",
    "lon": 28.092797,
    "lat": 43.377975,
    "alt": 67
  },
  {
    "dhv_id": "2871",
    "name": "Alberta a Nova",
    "desc": "Alberta a Nova SP, GS und HG, W",
    "dhv_link": "https://www.dhv.de/db2/details.php?qi=glp_details&popup=1&item=2871",
    "lon": -8.780217,
    "lat": 38.178294,
    "alt": 12
  },
  {
    "dhv_id": "2002",
    "name": "Albino",
    "desc": "Albino SP, GS, S-SW",
    "dhv_link": "https://www.dhv.de/db2/details.php?qi=glp_details&popup=1&item=2002",
    "lon": 9.799569,
    "lat": 45.783387,
    "alt": 1082
  },
  {
    "dhv_id": "1616",
    "name": "Albristhubel",
    "desc": "Albristhubel SP, GS, S",
    "dhv_link": "https://www.dhv.de/db2/details.php?qi=glp_details&popup=1&item=1616",
    "lon": 7.462989,
    "lat": 46.511686,
    "alt": 2126
  },
  {
    "dhv_id": "2658",
    "name": "Alcaria Ruiva",
    "desc": "Alcaria Ruiva SP, GS und HG, NO, SW",
    "dhv_link": "https://www.dhv.de/db2/details.php?qi=glp_details&popup=1&item=2658",
    "lon": -7.762178,
    "lat": 37.700569,
    "alt": 352
  },
  {
    "dhv_id": "2872",
    "name": "Alcaria",
    "desc": "Alcaria SP, GS und HG, NO, SW",
    "dhv_link": "https://www.dhv.de/db2/details.php?qi=glp_details&popup=1&item=2872",
    "lon": -7.762142,
    "lat": 37.700542,
    "alt": 352
  },
  {
    "dhv_id": "2857",
    "name": "Alcobertas",
    "desc": "Alcobertas SP, GS, SO",
    "dhv_link": "https://www.dhv.de/db2/details.php?qi=glp_details&popup=1&item=2857",
    "lon": -8.917158,
    "lat": 39.431175,
    "alt": 437
  },
  {
    "dhv_id": "2842",
    "name": "Alcofra",
    "desc": "Alcofra SP, GS und HG, W-NW",
    "dhv_link": "https://www.dhv.de/db2/details.php?qi=glp_details&popup=1&item=2842",
    "lon": -8.156203,
    "lat": 40.635936,
    "alt": 945
  },
  {
    "dhv_id": "2597",
    "name": "Ales Stena",
    "desc": "Ales Stena SP, GS und HG, SW, SO",
    "dhv_link": "https://www.dhv.de/db2/details.php?qi=glp_details&popup=1&item=2597",
    "lon": 14.053222,
    "lat": 55.3825,
    "alt": 38
  },
  {
    "dhv_id": "5227",
    "name": "Alfacar 1",
    "desc": "Alfacar SP 1, GS, SW-W",
    "dhv_link": "https://www.dhv.de/db2/details.php?qi=glp_details&popup=1&item=5227",
    "lon": -3.561506,
    "lat": 37.25925,
    "alt": 1392
  },
  {
    "dhv_id": "5227",
    "name": "Alfacar 2",
    "desc": "Alfacar SP 2, GS, S",
    "dhv_link": "https://www.dhv.de/db2/details.php?qi=glp_details&popup=1&item=5227",
    "lon": -3.548806,
    "lat": 37.254453,
    "alt": 1500
  },
  {
    "dhv_id": "2593",
    "name": "Alfamar",
    "desc": "Alfamar SP, GS, SO, SW",
    "dhv_link": "https://www.dhv.de/db2/details.php?qi=glp_details&popup=1&item=2593",
    "lon": -3.631317,
    "lat": 36.761625,
    "alt": 540
  },
  {
    "dhv_id": "5183",
    "name": "Alforja",
    "desc": "Alforja SP, GS, SO",
    "dhv_link": "https://www.dhv.de/db2/details.php?qi=glp_details&popup=1&item=5183",
    "lon": 0.964947,
    "lat": 41.228592,
    "alt": 816
  },
  {
    "dhv_id": "3803",
    "name": "Alghero",
    "desc": "Alghero SP, GS, SW-W",
    "dhv_link": "https://www.dhv.de/db2/details.php?qi=glp_details&popup=1&item=3803",
    "lon": 8.384728,
    "lat": 40.506486,
    "alt": 345
  },
  {
    "dhv_id": "2984",
    "name": "Algodonales 1",
    "desc": "Algodonales SP 1, GS und HG, SW-W, O-SO",
    "dhv_link": "https://www.dhv.de/db2/details.php?qi=glp_details&popup=1&item=2984",
    "lon": -5.415786,
    "lat": 36.894842,
    "alt": 910
  },
  {
    "dhv_id": "2984",
    "name": "Algodonales 2",
    "desc": "Algodonales SP 2, GS und HG, NW",
    "dhv_link": "https://www.dhv.de/db2/details.php?qi=glp_details&popup=1&item=2984",
    "lon": -5.407867,
    "lat": 36.903367,
    "alt": 874
  },
  {
    "dhv_id": "5054",
    "name": "Algrange",
    "desc": "Algrange SP, GS, NW",
    "dhv_link": "https://www.dhv.de/db2/details.php?qi=glp_details&popup=1&item=5054",
    "lon": 6.056444,
    "lat": 49.357422,
    "alt": 369
  },
  {
    "dhv_id": "2949",
    "name": "Alhama",
    "desc": "Alhama SP, GS, S",
    "dhv_link": "https://www.dhv.de/db2/details.php?qi=glp_details&popup=1&item=2949",
    "lon": -1.426106,
    "lat": 37.863,
    "alt": 475
  },
  {
    "dhv_id": "4148",
    "name": "Ali Dag 1",
    "desc": "Ali Dag SP 1, GS und HG, NW-NO",
    "dhv_link": "https://www.dhv.de/db2/details.php?qi=glp_details&popup=1&item=4148",
    "lon": 35.546367,
    "lat": 38.667989,
    "alt": 1751
  },
  {
    "dhv_id": "4148",
    "name": "Ali Dag 2",
    "desc": "Ali Dag SP 2, GS und HG, SO",
    "dhv_link": "https://www.dhv.de/db2/details.php?qi=glp_details&popup=1&item=4148",
    "lon": 35.554025,
    "lat": 38.662044,
    "alt": 1845
  },
  {
    "dhv_id": "1303",
    "name": "Alkus",
    "desc": "Alkus SP, GS und HG, SW",
    "dhv_link": "https://www.dhv.de/db2/details.php?qi=glp_details&popup=1&item=1303",
    "lon": 12.702167,
    "lat": 46.875361,
    "alt": 1309
  },
  {
    "dhv_id": "3617",
    "name": "Alleberg Ost",
    "desc": "Alleberg Ost SP, GS und HG, O",
    "dhv_link": "https://www.dhv.de/db2/details.php?qi=glp_details&popup=1&item=3617",
    "lon": 13.609656,
    "lat": 58.137442,
    "alt": 319
  },
  {
    "dhv_id": "3618",
    "name": "Alleberg West",
    "desc": "Alleberg West SP, GS und HG, W-NW",
    "dhv_link": "https://www.dhv.de/db2/details.php?qi=glp_details&popup=1&item=3618",
    "lon": 13.59735,
    "lat": 58.136156,
    "alt": 324
  },
  {
    "dhv_id": "1594",
    "name": "Allmenalp",
    "desc": "Allmenalp SP, GS, O",
    "dhv_link": "https://www.dhv.de/db2/details.php?qi=glp_details&popup=1&item=1594",
    "lon": 7.650092,
    "lat": 46.495022,
    "alt": 1812
  },
  {
    "dhv_id": "1383",
    "name": "Almkopf",
    "desc": "Almkopf SP, GS, N",
    "dhv_link": "https://www.dhv.de/db2/details.php?qi=glp_details&popup=1&item=1383",
    "lon": 10.7659,
    "lat": 47.415472,
    "alt": 1770
  },
  {
    "dhv_id": "5243",
    "name": "Alomar",
    "desc": "Alomar SP, GS, O-S",
    "dhv_link": "https://www.dhv.de/db2/details.php?qi=glp_details&popup=1&item=5243",
    "lon": 16.007747,
    "lat": 69.278019,
    "alt": 352
  },
  {
    "dhv_id": "1620",
    "name": "Alp da la Creusch",
    "desc": "Alp de la Creusch, Alp da la Creusch SP, GS, O-SO",
    "dhv_link": "https://www.dhv.de/db2/details.php?qi=glp_details&popup=1&item=1620",
    "lon": 9.642131,
    "lat": 46.705989,
    "alt": 2219
  },
  {
    "dhv_id": "1687",
    "name": "Alp Darlux",
    "desc": "Alp Darlux SP, GS, SW",
    "dhv_link": "https://www.dhv.de/db2/details.php?qi=glp_details&popup=1&item=1687",
    "lon": 9.779858,
    "lat": 46.624214,
    "alt": 2283
  },
  {
    "dhv_id": "5362",
    "name": "Alp Grüm Sot 1",
    "desc": "Alp Grüm Sot SP 1, GS, SW-W",
    "dhv_link": "https://www.dhv.de/db2/details.php?qi=glp_details&popup=1&item=5362",
    "lon": 10.151811,
    "lat": 46.257544,
    "alt": 1894
  },
  {
    "dhv_id": "5362",
    "name": "Alp Grüm Sot 2",
    "desc": "Alp Grüm Sot SP 2, GS, SW",
    "dhv_link": "https://www.dhv.de/db2/details.php?qi=glp_details&popup=1&item=5362",
    "lon": 10.144253,
    "lat": 46.268197,
    "alt": 1866
  },
  {
    "dhv_id": "5368",
    "name": "Alp Grüm",
    "desc": "Alp Grüm SP, GS, SO",
    "dhv_link": "https://www.dhv.de/db2/details.php?qi=glp_details&popup=1&item=5368",
    "lon": 10.032875,
    "lat": 46.375951,
    "alt": 2185
  },
  {
    "dhv_id": "2065",
    "name": "Alp Languard 1",
    "desc": "Alp Languard SP 1, GS und HG, SW-W",
    "dhv_link": "https://www.dhv.de/db2/details.php?qi=glp_details&popup=1&item=2065",
    "lon": 9.922178,
    "lat": 46.488081,
    "alt": 2307
  },
  {
    "dhv_id": "2065",
    "name": "Alp Languard 2",
    "desc": "Alp Languard SP 2, GS und HG, SW",
    "dhv_link": "https://www.dhv.de/db2/details.php?qi=glp_details&popup=1&item=2065",
    "lon": 9.922178,
    "lat": 46.488081,
    "alt": 2410
  },
  {
    "dhv_id": "2109",
    "name": "Alp Scheidegg",
    "desc": "Alp Scheidegg SP, GS und HG, SW-W",
    "dhv_link": "https://www.dhv.de/db2/details.php?qi=glp_details&popup=1&item=2109",
    "lon": 8.943983,
    "lat": 47.304667,
    "alt": 1209
  },
  {
    "dhv_id": "1621",
    "name": "Alp Stätz",
    "desc": "Alp Stätz SP, GS, O",
    "dhv_link": "https://www.dhv.de/db2/details.php?qi=glp_details&popup=1&item=1621",
    "lon": 9.516372,
    "lat": 46.756267,
    "alt": 2382
  },
  {
    "dhv_id": "1969",
    "name": "Alpe Bil",
    "desc": "Alpe Bil SP, GS, SW",
    "dhv_link": "https://www.dhv.de/db2/details.php?qi=glp_details&popup=1&item=1969",
    "lon": 7.96762,
    "lat": 45.975701,
    "alt": 1686
  },
  {
    "dhv_id": "1932",
    "name": "Alpe Cavalotti",
    "desc": "Alpe Cavalotti SP, GS, S",
    "dhv_link": "https://www.dhv.de/db2/details.php?qi=glp_details&popup=1&item=1932",
    "lon": 8.520047,
    "lat": 45.98615,
    "alt": 1179
  },
  {
    "dhv_id": "1554",
    "name": "Alpe Cermis",
    "desc": "Alpe Cermis SP, GS, W-N",
    "dhv_link": "https://www.dhv.de/db2/details.php?qi=glp_details&popup=1&item=1554",
    "lon": 11.503603,
    "lat": 46.243986,
    "alt": 2197
  },
  {
    "dhv_id": "1622",
    "name": "Alpe del Caviano",
    "desc": "Alpe del Caviano SP, GS, SW",
    "dhv_link": "https://www.dhv.de/db2/details.php?qi=glp_details&popup=1&item=1622",
    "lon": 9.007944,
    "lat": 45.877803,
    "alt": 972
  },
  {
    "dhv_id": "2022",
    "name": "Alpe Giumello",
    "desc": "Alpe Giumello SP, GS und HG, SW",
    "dhv_link": "https://www.dhv.de/db2/details.php?qi=glp_details&popup=1&item=2022",
    "lon": 9.356414,
    "lat": 46.045164,
    "alt": 1545
  },
  {
    "dhv_id": "5452",
    "name": "Alpe Lusentino",
    "desc": "Alpe Lusentino SP, GS, SO-S",
    "dhv_link": "https://www.dhv.de/db2/details.php?qi=glp_details&popup=1&item=5452",
    "lon": 8.254061,
    "lat": 46.102617,
    "alt": 1124
  },
  {
    "dhv_id": "2020",
    "name": "Alpe Mara 1",
    "desc": "Alpe Mara SP 1, GS und HG, S-SW",
    "dhv_link": "https://www.dhv.de/db2/details.php?qi=glp_details&popup=1&item=2020",
    "lon": 9.885556,
    "lat": 46.188611,
    "alt": 1210
  },
  {
    "dhv_id": "2020",
    "name": "Alpe Mara 2",
    "desc": "Alpe Mara SP 2, GS und HG, SW",
    "dhv_link": "https://www.dhv.de/db2/details.php?qi=glp_details&popup=1&item=2020",
    "lon": 9.921439,
    "lat": 46.206894,
    "alt": 1793
  },
  {
    "dhv_id": "5444",
    "name": "Alpe Mera",
    "desc": "Alpe Mera SP, GS, NW-N",
    "dhv_link": "https://www.dhv.de/db2/details.php?qi=glp_details&popup=1&item=5444",
    "lon": 8.086894,
    "lat": 45.738817,
    "alt": 1738
  },
  {
    "dhv_id": "2048",
    "name": "Alpe Motta",
    "desc": "Alpe Motta SP, GS und HG, S-SW",
    "dhv_link": "https://www.dhv.de/db2/details.php?qi=glp_details&popup=1&item=2048",
    "lon": 9.361942,
    "lat": 46.417431,
    "alt": 1919
  },
  {
    "dhv_id": "3700",
    "name": "Alpe Quaggione",
    "desc": "Alpe Quaggione SP, GS, SW-NW, NO-S",
    "dhv_link": "https://www.dhv.de/db2/details.php?qi=glp_details&popup=1&item=3700",
    "lon": 8.381967,
    "lat": 45.913708,
    "alt": 1313
  },
  {
    "dhv_id": "3703",
    "name": "Alpo di Storo",
    "desc": "Alpo di Storo SP, GS, SW-NO",
    "dhv_link": "https://www.dhv.de/db2/details.php?qi=glp_details&popup=1&item=3703",
    "lon": 10.573858,
    "lat": 45.809922,
    "alt": 1491
  },
  {
    "dhv_id": "3004",
    "name": "Alprech",
    "desc": "Alprech SP, GS, W",
    "dhv_link": "https://www.dhv.de/db2/details.php?qi=glp_details&popup=1&item=3004",
    "lon": 1.563736,
    "lat": 50.694208,
    "alt": 35
  },
  {
    "dhv_id": "381",
    "name": "Alpspitze Grüner Strich",
    "desc": "Alpspitze SP Grüner Strich, GS und HG, N",
    "dhv_link": "https://www.dhv.de/db2/details.php?qi=glp_details&popup=1&item=381",
    "lon": 10.499668,
    "lat": 47.600694,
    "alt": 1520
  },
  {
    "dhv_id": "381",
    "name": "Alpspitze Steiler Hund",
    "desc": "Alpspitze SP Steiler Hund, GS und HG, ONO",
    "dhv_link": "https://www.dhv.de/db2/details.php?qi=glp_details&popup=1&item=381",
    "lon": 10.499281,
    "lat": 47.597308,
    "alt": 1520
  },
  {
    "dhv_id": "5731",
    "name": "Altenberg",
    "desc": "Altenberg - Ruine Aura, Altenberg SP, GS, S",
    "dhv_link": "https://www.dhv.de/db2/details.php?qi=glp_details&popup=1&item=5731",
    "lon": 10.015575,
    "lat": 50.167686,
    "alt": 252
  },
  {
    "dhv_id": "876",
    "name": "Altenbeuthen - Stausee",
    "desc": "Altenbeuthen - Stausee SP, GS, N",
    "dhv_link": "https://www.dhv.de/db2/details.php?qi=glp_details&popup=1&item=876",
    "lon": 11.593979,
    "lat": 50.593503,
    "alt": 538
  },
  {
    "dhv_id": "655",
    "name": "Alter Steinbruch",
    "desc": "Alter Steinbruch (Lindenfels), Alter Steinbruch SP, GS und HG, S-SW",
    "dhv_link": "https://www.dhv.de/db2/details.php?qi=glp_details&popup=1&item=655",
    "lon": 8.775973,
    "lat": 49.695182,
    "alt": 520
  },
  {
    "dhv_id": "314",
    "name": "Altglashütten / Kapellenhof",
    "desc": "Altglashütten / Kapellenhof SP, GS, NW-O",
    "dhv_link": "https://www.dhv.de/db2/details.php?qi=glp_details&popup=1&item=314",
    "lon": 8.103619,
    "lat": 47.848936,
    "alt": 1150
  },
  {
    "dhv_id": "5184",
    "name": "Alto Rey",
    "desc": "Alto Rey SP, GS und HG, S",
    "dhv_link": "https://www.dhv.de/db2/details.php?qi=glp_details&popup=1&item=5184",
    "lon": -3.062819,
    "lat": 41.165503,
    "alt": 1799
  },
  {
    "dhv_id": "2089",
    "name": "Altwisstock",
    "desc": "Altwisstock SP, GS, SW",
    "dhv_link": "https://www.dhv.de/db2/details.php?qi=glp_details&popup=1&item=2089",
    "lon": 9.06835,
    "lat": 47.210761,
    "alt": 1055
  },
  {
    "dhv_id": "4675",
    "name": "Alvados",
    "desc": "Alvados SP, GS, NO",
    "dhv_link": "https://www.dhv.de/db2/details.php?qi=glp_details&popup=1&item=4675",
    "lon": -8.787531,
    "lat": 39.543536,
    "alt": 558
  },
  {
    "dhv_id": "4674",
    "name": "Alvaiazere",
    "desc": "Alvaiazere SP, GS, NO-SO",
    "dhv_link": "https://www.dhv.de/db2/details.php?qi=glp_details&popup=1&item=4674",
    "lon": -8.406203,
    "lat": 39.830467,
    "alt": 534
  },
  {
    "dhv_id": "5271",
    "name": "Alvdal",
    "desc": "Alvdal SP, GS und HG, SW",
    "dhv_link": "https://www.dhv.de/db2/details.php?qi=glp_details&popup=1&item=5271",
    "lon": 10.710817,
    "lat": 62.149633,
    "alt": 1312
  },
  {
    "dhv_id": "5647",
    "name": "Am Antritt",
    "desc": "Am Antritt SP, GS, O",
    "dhv_link": "https://www.dhv.de/db2/details.php?qi=glp_details&popup=1&item=5647",
    "lon": 12.083056,
    "lat": 47.741111,
    "alt": 666
  },
  {
    "dhv_id": "636",
    "name": "Am Geisberg",
    "desc": "Am Geisberg (Ü-Hang), Am Geisberg SP, GS und HG, S-SW",
    "dhv_link": "https://www.dhv.de/db2/details.php?qi=glp_details&popup=1&item=636",
    "lon": 8.770008,
    "lat": 49.691176,
    "alt": 362
  },
  {
    "dhv_id": "957",
    "name": "Am Göbbelsberge",
    "desc": "Am Göbbelsberge / Albertshausen, Am Göbbelsberge SP, GS, NNO-NO",
    "dhv_link": "https://www.dhv.de/db2/details.php?qi=glp_details&popup=1&item=957",
    "lon": 9.053889,
    "lat": 51.120833,
    "alt": 355
  },
  {
    "dhv_id": "1018",
    "name": "Am Hoppern Ritzhagen",
    "desc": "Am Hoppern / Rodelhang Ritzhagen, Am Hoppern Ritzhagen SP, GS, O",
    "dhv_link": "https://www.dhv.de/db2/details.php?qi=glp_details&popup=1&item=1018",
    "lon": 8.590857,
    "lat": 51.295149,
    "alt": 685
  },
  {
    "dhv_id": "296",
    "name": "Am Kirchweg",
    "desc": "Am Kirchweg SP, HG, SW-N",
    "dhv_link": "https://www.dhv.de/db2/details.php?qi=glp_details&popup=1&item=296",
    "lon": 7.997038,
    "lat": 47.959121,
    "alt": 505
  },
  {
    "dhv_id": "1093",
    "name": "Am kleinen Holze",
    "desc": "Am kleinen Holze SP, GS, N",
    "dhv_link": "https://www.dhv.de/db2/details.php?qi=glp_details&popup=1&item=1093",
    "lon": 8.596967,
    "lat": 51.287783,
    "alt": 650
  },
  {
    "dhv_id": "618",
    "name": "Am Rammelsberg Nordwest-",
    "desc": "Am Rammelsberg Nordwest-SP, GS und HG, W-N",
    "dhv_link": "https://www.dhv.de/db2/details.php?qi=glp_details&popup=1&item=618",
    "lon": 10.430875,
    "lat": 51.88971,
    "alt": 610
  },
  {
    "dhv_id": "618",
    "name": "Am Rammelsberg Südwest-",
    "desc": "Am Rammelsberg Südwest-SP, GS und HG, SW",
    "dhv_link": "https://www.dhv.de/db2/details.php?qi=glp_details&popup=1&item=618",
    "lon": 10.428085,
    "lat": 51.888465,
    "alt": 610
  },
  {
    "dhv_id": "898",
    "name": "Am Saalenweg",
    "desc": "Am Weinberge - Am Saalenweg, Am Saalenweg SP, GS, N",
    "dhv_link": "https://www.dhv.de/db2/details.php?qi=glp_details&popup=1&item=898",
    "lon": 9.191729,
    "lat": 51.118134,
    "alt": 290
  },
  {
    "dhv_id": "622",
    "name": "Am Viechberg 1",
    "desc": "Am Viechberg SP 1, GS, S",
    "dhv_link": "https://www.dhv.de/db2/details.php?qi=glp_details&popup=1&item=622",
    "lon": 9.721162,
    "lat": 48.990271,
    "alt": 415
  },
  {
    "dhv_id": "5089",
    "name": "Amasra",
    "desc": "Amasra SP, GS, NW",
    "dhv_link": "https://www.dhv.de/db2/details.php?qi=glp_details&popup=1&item=5089",
    "lon": 32.402506,
    "lat": 41.731975,
    "alt": 371
  },
  {
    "dhv_id": "4109",
    "name": "Amasyan",
    "desc": "Amasyan SP, GS, NO",
    "dhv_link": "https://www.dhv.de/db2/details.php?qi=glp_details&popup=1&item=4109",
    "lon": 35.788039,
    "lat": 40.636194,
    "alt": 949
  },
  {
    "dhv_id": "1638",
    "name": "Ambroz Sp. poseka",
    "desc": "Ambroz Sp. poseka SP, GS und HG, O-S",
    "dhv_link": "https://www.dhv.de/db2/details.php?qi=glp_details&popup=1&item=1638",
    "lon": 14.530556,
    "lat": 46.277364,
    "alt": 1195
  },
  {
    "dhv_id": "2218",
    "name": "Ambroz",
    "desc": "Ambroz SP, GS und HG, SO-S",
    "dhv_link": "https://www.dhv.de/db2/details.php?qi=glp_details&popup=1&item=2218",
    "lon": 14.529067,
    "lat": 46.274647,
    "alt": 1074
  },
  {
    "dhv_id": "1639",
    "name": "Ambroz Zg. poseka",
    "desc": "Ambroz Zg. poseka SP, GS und HG, SW",
    "dhv_link": "https://www.dhv.de/db2/details.php?qi=glp_details&popup=1&item=1639",
    "lon": 14.524861,
    "lat": 46.281686,
    "alt": 1332
  },
  {
    "dhv_id": "2930",
    "name": "Amer",
    "desc": "Amer SP, GS, S-SW",
    "dhv_link": "https://www.dhv.de/db2/details.php?qi=glp_details&popup=1&item=2930",
    "lon": 2.6126,
    "lat": 42.021831,
    "alt": 468
  },
  {
    "dhv_id": "4779",
    "name": "Amfissa",
    "desc": "Amfissa SP, GS, S",
    "dhv_link": "https://www.dhv.de/db2/details.php?qi=glp_details&popup=1&item=4779",
    "lon": 22.389358,
    "lat": 38.533272,
    "alt": 325
  },
  {
    "dhv_id": "2483",
    "name": "Amflikleia 1",
    "desc": "Amflikleia SP 1, GS und HG, N-NO",
    "dhv_link": "https://www.dhv.de/db2/details.php?qi=glp_details&popup=1&item=2483",
    "lon": 22.571078,
    "lat": 38.623906,
    "alt": 1104
  },
  {
    "dhv_id": "2483",
    "name": "Amflikleia 2",
    "desc": "Amflikleia SP 2, GS und HG, SW-W",
    "dhv_link": "https://www.dhv.de/db2/details.php?qi=glp_details&popup=1&item=2483",
    "lon": 22.567169,
    "lat": 38.618356,
    "alt": 1173
  },
  {
    "dhv_id": "4911",
    "name": "Amfreville-sous-les-Monts",
    "desc": "Amfreville-sous-les-Monts SP, GS und HG, SW",
    "dhv_link": "https://www.dhv.de/db2/details.php?qi=glp_details&popup=1&item=4911",
    "lon": 1.264411,
    "lat": 49.301939,
    "alt": 105
  },
  {
    "dhv_id": "4888",
    "name": "Amigny",
    "desc": "Amigny SP, GS und HG, N-NO",
    "dhv_link": "https://www.dhv.de/db2/details.php?qi=glp_details&popup=1&item=4888",
    "lon": 2.793703,
    "lat": 47.330397,
    "alt": 342
  },
  {
    "dhv_id": "5356",
    "name": "Aminona",
    "desc": "Aminona SP, GS und HG, S",
    "dhv_link": "https://www.dhv.de/db2/details.php?qi=glp_details&popup=1&item=5356",
    "lon": 7.536206,
    "lat": 46.34105,
    "alt": 1809
  },
  {
    "dhv_id": "1582",
    "name": "Amisbühl 1 (Chalet)",
    "desc": "Amisbühl SP 1 (Chalet), GS und HG, S",
    "dhv_link": "https://www.dhv.de/db2/details.php?qi=glp_details&popup=1&item=1582",
    "lon": 7.819633,
    "lat": 46.700953,
    "alt": 1316
  },
  {
    "dhv_id": "1582",
    "name": "Amisbühl 2 (Bergbo)",
    "desc": "Amisbühl SP 2 (Bergbo), GS, SO-S",
    "dhv_link": "https://www.dhv.de/db2/details.php?qi=glp_details&popup=1&item=1582",
    "lon": 7.820581,
    "lat": 46.700381,
    "alt": 1280
  },
  {
    "dhv_id": "1582",
    "name": "Amisbühl 3",
    "desc": "Amisbühl SP 3, GS und HG, SO",
    "dhv_link": "https://www.dhv.de/db2/details.php?qi=glp_details&popup=1&item=1582",
    "lon": 7.822341,
    "lat": 46.702397,
    "alt": 1327
  },
  {
    "dhv_id": "1582",
    "name": "Amisbühl 4",
    "desc": "Amisbühl SP 4, GS und HG, SO",
    "dhv_link": "https://www.dhv.de/db2/details.php?qi=glp_details&popup=1&item=1582",
    "lon": 7.823467,
    "lat": 46.702636,
    "alt": 1297
  },
  {
    "dhv_id": "1582",
    "name": "Amisbühl 5 (Hohwald)",
    "desc": "Amisbühl SP 5 (Hohwald), GS und HG, SO-S",
    "dhv_link": "https://www.dhv.de/db2/details.php?qi=glp_details&popup=1&item=1582",
    "lon": 7.824061,
    "lat": 46.713808,
    "alt": 1572
  },
  {
    "dhv_id": "2490",
    "name": "Anabysos",
    "desc": "Anabysos SP, GS und HG, S",
    "dhv_link": "https://www.dhv.de/db2/details.php?qi=glp_details&popup=1&item=2490",
    "lon": 23.930992,
    "lat": 37.750906,
    "alt": 408
  },
  {
    "dhv_id": "5134",
    "name": "Anamur",
    "desc": "Anamur SP, GS, SW",
    "dhv_link": "https://www.dhv.de/db2/details.php?qi=glp_details&popup=1&item=5134",
    "lon": 32.901636,
    "lat": 36.116486,
    "alt": 804
  },
  {
    "dhv_id": "4745",
    "name": "Anapa",
    "desc": "Anapa SP, GS, SW",
    "dhv_link": "https://www.dhv.de/db2/details.php?qi=glp_details&popup=1&item=4745",
    "lon": 37.318,
    "lat": 44.871419,
    "alt": 33
  },
  {
    "dhv_id": "3894",
    "name": "Anaza",
    "desc": "Anaza SP, GS, SO",
    "dhv_link": "https://www.dhv.de/db2/details.php?qi=glp_details&popup=1&item=3894",
    "lon": -16.295619,
    "lat": 28.422942,
    "alt": 77
  },
  {
    "dhv_id": "5267",
    "name": "Andalsnes",
    "desc": "Andalsnes SP, GS, SW",
    "dhv_link": "https://www.dhv.de/db2/details.php?qi=glp_details&popup=1&item=5267",
    "lon": 7.707961,
    "lat": 62.561553,
    "alt": 395
  },
  {
    "dhv_id": "1891",
    "name": "Andey",
    "desc": "Andey SP, HG, NW",
    "dhv_link": "https://www.dhv.de/db2/details.php?qi=glp_details&popup=1&item=1891",
    "lon": 6.407853,
    "lat": 46.054064,
    "alt": 1061
  },
  {
    "dhv_id": "3955",
    "name": "Andrlak",
    "desc": "Andrlak SP, GS und HG, W",
    "dhv_link": "https://www.dhv.de/db2/details.php?qi=glp_details&popup=1&item=3955",
    "lon": 15.534853,
    "lat": 49.945186,
    "alt": 338
  },
  {
    "dhv_id": "3658",
    "name": "Andrzejowka",
    "desc": "Andrzejowka SP, GS und HG, NW-N",
    "dhv_link": "https://www.dhv.de/db2/details.php?qi=glp_details&popup=1&item=3658",
    "lon": 16.276094,
    "lat": 50.692019,
    "alt": 817
  },
  {
    "dhv_id": "3951",
    "name": "Anensky vrch",
    "desc": "Anensky vrch SP, GS, SO",
    "dhv_link": "https://www.dhv.de/db2/details.php?qi=glp_details&popup=1&item=3951",
    "lon": 17.380794,
    "lat": 50.074169,
    "alt": 846
  },
  {
    "dhv_id": "3366",
    "name": "Annagh Hill",
    "desc": "Annagh Hill SP, GS, SO",
    "dhv_link": "https://www.dhv.de/db2/details.php?qi=glp_details&popup=1&item=3366",
    "lon": -6.368953,
    "lat": 52.753483,
    "alt": 443
  },
  {
    "dhv_id": "4752",
    "name": "Ano Kafalari",
    "desc": "Ano Kafalari SP, GS, SW",
    "dhv_link": "https://www.dhv.de/db2/details.php?qi=glp_details&popup=1&item=4752",
    "lon": 24.286797,
    "lat": 41.053367,
    "alt": 572
  },
  {
    "dhv_id": "4561",
    "name": "Ano Verga",
    "desc": "Ano Verga SP, GS und HG, SW-W",
    "dhv_link": "https://www.dhv.de/db2/details.php?qi=glp_details&popup=1&item=4561",
    "lon": 22.177606,
    "lat": 37.006619,
    "alt": 900
  },
  {
    "dhv_id": "5012",
    "name": "Anoshko",
    "desc": "Anoshko SP, GS und HG, NW-N",
    "dhv_link": "https://www.dhv.de/db2/details.php?qi=glp_details&popup=1&item=5012",
    "lon": 27.872572,
    "lat": 54.084303,
    "alt": 196
  },
  {
    "dhv_id": "2558",
    "name": "Anshede",
    "desc": "Anshede SP, GS, SW-W",
    "dhv_link": "https://www.dhv.de/db2/details.php?qi=glp_details&popup=1&item=2558",
    "lon": 8.970383,
    "lat": 56.822853,
    "alt": 15
  },
  {
    "dhv_id": "1550",
    "name": "Antenna Castalunga",
    "desc": "Antenna Costalunga, Antenna Castalunga SP, GS, O-S",
    "dhv_link": "https://www.dhv.de/db2/details.php?qi=glp_details&popup=1&item=1550",
    "lon": 11.745125,
    "lat": 45.811711,
    "alt": 741
  },
  {
    "dhv_id": "5581",
    "name": "Apc",
    "desc": "Apc SP, GS, SW-W",
    "dhv_link": "https://www.dhv.de/db2/details.php?qi=glp_details&popup=1&item=5581",
    "lon": 19.709844,
    "lat": 47.797739,
    "alt": 379
  },
  {
    "dhv_id": "5092",
    "name": "Aqua Beach",
    "desc": "Aqua Beach SP, GS, NO",
    "dhv_link": "https://www.dhv.de/db2/details.php?qi=glp_details&popup=1&item=5092",
    "lon": 29.634683,
    "lat": 41.170228,
    "alt": 24
  },
  {
    "dhv_id": "3898",
    "name": "Arafo 1",
    "desc": "Arafo SP 1, GS, SO",
    "dhv_link": "https://www.dhv.de/db2/details.php?qi=glp_details&popup=1&item=3898",
    "lon": -16.430589,
    "lat": 28.377722,
    "alt": 1274
  },
  {
    "dhv_id": "3898",
    "name": "Arafo 2",
    "desc": "Arafo SP 2, GS, SO",
    "dhv_link": "https://www.dhv.de/db2/details.php?qi=glp_details&popup=1&item=3898",
    "lon": -16.429564,
    "lat": 28.367167,
    "alt": 1037
  },
  {
    "dhv_id": "4523",
    "name": "Araksbo",
    "desc": "Araksbo SP, GS und HG, NW",
    "dhv_link": "https://www.dhv.de/db2/details.php?qi=glp_details&popup=1&item=4523",
    "lon": 7.748358,
    "lat": 58.913808,
    "alt": 422
  },
  {
    "dhv_id": "2956",
    "name": "Arangoiti",
    "desc": "Arangoiti SP, GS, S",
    "dhv_link": "https://www.dhv.de/db2/details.php?qi=glp_details&popup=1&item=2956",
    "lon": -1.187797,
    "lat": 42.644981,
    "alt": 1225
  },
  {
    "dhv_id": "3321",
    "name": "Arbas",
    "desc": "Arbas SP, GS, N-NO",
    "dhv_link": "https://www.dhv.de/db2/details.php?qi=glp_details&popup=1&item=3321",
    "lon": 0.886064,
    "lat": 42.970069,
    "alt": 1076
  },
  {
    "dhv_id": "3501",
    "name": "Arco da Calheta 1",
    "desc": "Arco da Calheta SP 1, GS, SW-W",
    "dhv_link": "https://www.dhv.de/db2/details.php?qi=glp_details&popup=1&item=3501",
    "lon": -17.141505,
    "lat": 32.708083,
    "alt": 426
  },
  {
    "dhv_id": "3501",
    "name": "Arco da Calheta 2",
    "desc": "Arco da Calheta SP 2, GS, SO-S",
    "dhv_link": "https://www.dhv.de/db2/details.php?qi=glp_details&popup=1&item=3501",
    "lon": -17.135719,
    "lat": 32.724903,
    "alt": 805
  },
  {
    "dhv_id": "2941",
    "name": "Arcones",
    "desc": "Arcones SP, GS und HG, NW",
    "dhv_link": "https://www.dhv.de/db2/details.php?qi=glp_details&popup=1&item=2941",
    "lon": -3.707664,
    "lat": 41.07705,
    "alt": 1841
  },
  {
    "dhv_id": "3101",
    "name": "Arcy sur Cure",
    "desc": "Arcy sur Cure SP, GS und HG, SW",
    "dhv_link": "https://www.dhv.de/db2/details.php?qi=glp_details&popup=1&item=3101",
    "lon": 3.777561,
    "lat": 47.600611,
    "alt": 219
  },
  {
    "dhv_id": "4553",
    "name": "Ardal",
    "desc": "Ardal SP, GS, W-N",
    "dhv_link": "https://www.dhv.de/db2/details.php?qi=glp_details&popup=1&item=4553",
    "lon": 7.848581,
    "lat": 61.298367,
    "alt": 1050
  },
  {
    "dhv_id": "3377",
    "name": "Ardara",
    "desc": "Ardara SP, GS, NO",
    "dhv_link": "https://www.dhv.de/db2/details.php?qi=glp_details&popup=1&item=3377",
    "lon": -8.538297,
    "lat": 54.764744,
    "alt": 57
  },
  {
    "dhv_id": "4686",
    "name": "Areias Branchas",
    "desc": "Areias Brancas, Areias Branchas SP, GS, W-NW",
    "dhv_link": "https://www.dhv.de/db2/details.php?qi=glp_details&popup=1&item=4686",
    "lon": -8.820806,
    "lat": 38.055175,
    "alt": 23
  },
  {
    "dhv_id": "5185",
    "name": "Ares del Maestre",
    "desc": "Ares del Maestre SP, GS, NW",
    "dhv_link": "https://www.dhv.de/db2/details.php?qi=glp_details&popup=1&item=5185",
    "lon": -0.129336,
    "lat": 40.468267,
    "alt": 1314
  },
  {
    "dhv_id": "3600",
    "name": "Areskutan 1",
    "desc": "Areskutan SP 1, GS, SW",
    "dhv_link": "https://www.dhv.de/db2/details.php?qi=glp_details&popup=1&item=3600",
    "lon": 13.079619,
    "lat": 63.426675,
    "alt": 1251
  },
  {
    "dhv_id": "3600",
    "name": "Areskutan 2",
    "desc": "Areskutan SP 2, GS und HG, S-SW",
    "dhv_link": "https://www.dhv.de/db2/details.php?qi=glp_details&popup=1&item=3600",
    "lon": 13.061228,
    "lat": 63.415025,
    "alt": 833
  },
  {
    "dhv_id": "3600",
    "name": "Areskutan 3",
    "desc": "Areskutan SP 3, GS und HG, O-SO",
    "dhv_link": "https://www.dhv.de/db2/details.php?qi=glp_details&popup=1&item=3600",
    "lon": 13.083369,
    "lat": 63.410653,
    "alt": 816
  },
  {
    "dhv_id": "3600",
    "name": "Areskutan 4",
    "desc": "Areskutan SP 4, GS, W-NW",
    "dhv_link": "https://www.dhv.de/db2/details.php?qi=glp_details&popup=1&item=3600",
    "lon": 13.093514,
    "lat": 63.431233,
    "alt": 1461
  },
  {
    "dhv_id": "3600",
    "name": "Areskutan 5",
    "desc": "Areskutan SP 5, GS, W",
    "dhv_link": "https://www.dhv.de/db2/details.php?qi=glp_details&popup=1&item=3600",
    "lon": 13.0693,
    "lat": 63.425039,
    "alt": 1173
  },
  {
    "dhv_id": "3600",
    "name": "Areskutan 6",
    "desc": "Areskutan SP 6, GS, S",
    "dhv_link": "https://www.dhv.de/db2/details.php?qi=glp_details&popup=1&item=3600",
    "lon": 13.072614,
    "lat": 63.424286,
    "alt": 1172
  },
  {
    "dhv_id": "2289",
    "name": "Arfuyen",
    "desc": "Arfuyen SP, GS und HG, SO",
    "dhv_link": "https://www.dhv.de/db2/details.php?qi=glp_details&popup=1&item=2289",
    "lon": 5.101814,
    "lat": 44.192592,
    "alt": 569
  },
  {
    "dhv_id": "4669",
    "name": "Arganil",
    "desc": "Arganil SP, GS und HG, W",
    "dhv_link": "https://www.dhv.de/db2/details.php?qi=glp_details&popup=1&item=4669",
    "lon": -7.974322,
    "lat": 40.225281,
    "alt": 754
  },
  {
    "dhv_id": "3308",
    "name": "Argeliers",
    "desc": "Argeliers SP, GS und HG, SO",
    "dhv_link": "https://www.dhv.de/db2/details.php?qi=glp_details&popup=1&item=3308",
    "lon": 2.884328,
    "lat": 43.315397,
    "alt": 206
  },
  {
    "dhv_id": "3801",
    "name": "Argentiera",
    "desc": "Argentiera SP, GS, NW",
    "dhv_link": "https://www.dhv.de/db2/details.php?qi=glp_details&popup=1&item=3801",
    "lon": 8.161328,
    "lat": 40.758356,
    "alt": 21
  },
  {
    "dhv_id": "4095",
    "name": "Arhavi",
    "desc": "Arhavi SP, GS, W-NW",
    "dhv_link": "https://www.dhv.de/db2/details.php?qi=glp_details&popup=1&item=4095",
    "lon": 41.338408,
    "lat": 41.339861,
    "alt": 553
  },
  {
    "dhv_id": "3551",
    "name": "Arilje Majic",
    "desc": "Arilje-Majic, Arilje Majic SP, GS, NW-NO",
    "dhv_link": "https://www.dhv.de/db2/details.php?qi=glp_details&popup=1&item=3551",
    "lon": 20.103244,
    "lat": 43.649458,
    "alt": 1081
  },
  {
    "dhv_id": "5538",
    "name": "Ärjänsaari",
    "desc": "Ärjänsaari SP, GS, SW",
    "dhv_link": "https://www.dhv.de/db2/details.php?qi=glp_details&popup=1&item=5538",
    "lon": 27.347908,
    "lat": 64.268703,
    "alt": 129
  },
  {
    "dhv_id": "2486",
    "name": "Arma",
    "desc": "Arma SP, GS und HG, N",
    "dhv_link": "https://www.dhv.de/db2/details.php?qi=glp_details&popup=1&item=2486",
    "lon": 23.498344,
    "lat": 38.325697,
    "alt": 449
  },
  {
    "dhv_id": "1898",
    "name": "Arnoldshain",
    "desc": "Arnoldshain SP, GS, NO",
    "dhv_link": "https://www.dhv.de/db2/details.php?qi=glp_details&popup=1&item=1898",
    "lon": 8.447328,
    "lat": 50.254504,
    "alt": 560
  },
  {
    "dhv_id": "263",
    "name": "Arnsberg",
    "desc": "Arnsberg SP, GS und HG, NW",
    "dhv_link": "https://www.dhv.de/db2/details.php?qi=glp_details&popup=1&item=263",
    "lon": 9.956617,
    "lat": 50.398506,
    "alt": 750
  },
  {
    "dhv_id": "3384",
    "name": "Arra Mountain",
    "desc": "Arra Mountain SP, GS, SW-W",
    "dhv_link": "https://www.dhv.de/db2/details.php?qi=glp_details&popup=1&item=3384",
    "lon": -8.394283,
    "lat": 52.846689,
    "alt": 435
  },
  {
    "dhv_id": "4676",
    "name": "Arribal",
    "desc": "Arrimal, Arribal SP, GS, NW",
    "dhv_link": "https://www.dhv.de/db2/details.php?qi=glp_details&popup=1&item=4676",
    "lon": -8.87735,
    "lat": 39.480483,
    "alt": 477
  },
  {
    "dhv_id": "4868",
    "name": "Arrieta Beach",
    "desc": "Arrieta Beach SP, GS, NO",
    "dhv_link": "https://www.dhv.de/db2/details.php?qi=glp_details&popup=1&item=4868",
    "lon": -13.464422,
    "lat": 29.121925,
    "alt": 19
  },
  {
    "dhv_id": "4976",
    "name": "Arros",
    "desc": "Arros SP, GS und HG, W-NW",
    "dhv_link": "https://www.dhv.de/db2/details.php?qi=glp_details&popup=1&item=4976",
    "lon": -1.097753,
    "lat": 45.546083,
    "alt": 17
  },
  {
    "dhv_id": "3327",
    "name": "Arrouyes 1",
    "desc": "Arrouyes SP 1, GS, SO-S",
    "dhv_link": "https://www.dhv.de/db2/details.php?qi=glp_details&popup=1&item=3327",
    "lon": 0.108786,
    "lat": 42.911356,
    "alt": 1857
  },
  {
    "dhv_id": "3327",
    "name": "Arrouyes 2",
    "desc": "Arrouyes SP 2, GS, S",
    "dhv_link": "https://www.dhv.de/db2/details.php?qi=glp_details&popup=1&item=3327",
    "lon": 0.103969,
    "lat": 42.912311,
    "alt": 1932
  },
  {
    "dhv_id": "3327",
    "name": "Arrouyes 3",
    "desc": "Arrouyes SP 3, GS, S",
    "dhv_link": "https://www.dhv.de/db2/details.php?qi=glp_details&popup=1&item=3327",
    "lon": 0.101369,
    "lat": 42.915047,
    "alt": 2117
  },
  {
    "dhv_id": "4679",
    "name": "Arruda",
    "desc": "Arruda SP, GS, NO",
    "dhv_link": "https://www.dhv.de/db2/details.php?qi=glp_details&popup=1&item=4679",
    "lon": -9.098211,
    "lat": 38.992617,
    "alt": 280
  },
  {
    "dhv_id": "4190",
    "name": "Arslanköy",
    "desc": "Arslanköy SP, GS, SO",
    "dhv_link": "https://www.dhv.de/db2/details.php?qi=glp_details&popup=1&item=4190",
    "lon": 34.29765,
    "lat": 37.032336,
    "alt": 1865
  },
  {
    "dhv_id": "3280",
    "name": "Arsuf",
    "desc": "Arsuf SP, GS und HG, WSW-WNW",
    "dhv_link": "https://www.dhv.de/db2/details.php?qi=glp_details&popup=1&item=3280",
    "lon": 34.811751,
    "lat": 32.207109,
    "alt": 40
  },
  {
    "dhv_id": "1400",
    "name": "Arvialp",
    "desc": "Arvialp SP, GS, NW",
    "dhv_link": "https://www.dhv.de/db2/details.php?qi=glp_details&popup=1&item=1400",
    "lon": 8.330175,
    "lat": 46.892069,
    "alt": 1794
  },
  {
    "dhv_id": "5291",
    "name": "Arvoll",
    "desc": "Arvoll SP, GS, SW",
    "dhv_link": "https://www.dhv.de/db2/details.php?qi=glp_details&popup=1&item=5291",
    "lon": 10.820128,
    "lat": 59.946178,
    "alt": 185
  },
  {
    "dhv_id": "4510",
    "name": "Asa",
    "desc": "Asa SP, GS, SW-W",
    "dhv_link": "https://www.dhv.de/db2/details.php?qi=glp_details&popup=1&item=4510",
    "lon": 10.390289,
    "lat": 60.128967,
    "alt": 462
  },
  {
    "dhv_id": "5109",
    "name": "Asar Tepe",
    "desc": "Asar Tepe SP, GS, NO-O",
    "dhv_link": "https://www.dhv.de/db2/details.php?qi=glp_details&popup=1&item=5109",
    "lon": 27.351833,
    "lat": 39.431333,
    "alt": 761
  },
  {
    "dhv_id": "3602",
    "name": "Asberget",
    "desc": "Asberget SP, GS und HG, S-SW",
    "dhv_link": "https://www.dhv.de/db2/details.php?qi=glp_details&popup=1&item=3602",
    "lon": 18.665106,
    "lat": 63.300894,
    "alt": 209
  },
  {
    "dhv_id": "1045",
    "name": "Ascheloh-Hermannsweg",
    "desc": "Ascheloh-Hermannsweg SP, GS und HG, WSW",
    "dhv_link": "https://www.dhv.de/db2/details.php?qi=glp_details&popup=1&item=1045",
    "lon": 8.409833,
    "lat": 52.050751,
    "alt": 290
  },
  {
    "dhv_id": "4191",
    "name": "Ashabi Kehf",
    "desc": "Ashabi Kehf SP, GS, SW",
    "dhv_link": "https://www.dhv.de/db2/details.php?qi=glp_details&popup=1&item=4191",
    "lon": 34.799328,
    "lat": 36.960944,
    "alt": 465
  },
  {
    "dhv_id": "3577",
    "name": "Ashkul",
    "desc": "Aushkul, Ashkul SP, GS und HG, W-NW",
    "dhv_link": "https://www.dhv.de/db2/details.php?qi=glp_details&popup=1&item=3577",
    "lon": 59.695675,
    "lat": 54.678422,
    "alt": 559
  },
  {
    "dhv_id": "1432",
    "name": "Asitzkogel",
    "desc": "Asitzkogel SP, GS, O",
    "dhv_link": "https://www.dhv.de/db2/details.php?qi=glp_details&popup=1&item=1432",
    "lon": 12.707397,
    "lat": 47.405619,
    "alt": 1854
  },
  {
    "dhv_id": "2428",
    "name": "Asprangeloi",
    "desc": "Asprangeloi SP, GS und HG, SW-W",
    "dhv_link": "https://www.dhv.de/db2/details.php?qi=glp_details&popup=1&item=2428",
    "lon": 20.723842,
    "lat": 39.820969,
    "alt": 1060
  },
  {
    "dhv_id": "4788",
    "name": "Asprokampos",
    "desc": "Asprokampos SP, GS, NO",
    "dhv_link": "https://www.dhv.de/db2/details.php?qi=glp_details&popup=1&item=4788",
    "lon": 22.953072,
    "lat": 38.044797,
    "alt": 491
  },
  {
    "dhv_id": "2457",
    "name": "Assiros",
    "desc": "Assiros SP, GS und HG, SW-W",
    "dhv_link": "https://www.dhv.de/db2/details.php?qi=glp_details&popup=1&item=2457",
    "lon": 22.960608,
    "lat": 40.823917,
    "alt": 395
  },
  {
    "dhv_id": "3855",
    "name": "Assoro",
    "desc": "Assoro SP, GS und HG, O-SO",
    "dhv_link": "https://www.dhv.de/db2/details.php?qi=glp_details&popup=1&item=3855",
    "lon": 14.427014,
    "lat": 37.625875,
    "alt": 872
  },
  {
    "dhv_id": "4163",
    "name": "Atabey",
    "desc": "Atabey SP, GS, S-SW",
    "dhv_link": "https://www.dhv.de/db2/details.php?qi=glp_details&popup=1&item=4163",
    "lon": 30.679789,
    "lat": 37.960761,
    "alt": 1508
  },
  {
    "dhv_id": "5121",
    "name": "Atatürk",
    "desc": "Atatürk SP, GS und HG, NW-NO",
    "dhv_link": "https://www.dhv.de/db2/details.php?qi=glp_details&popup=1&item=5121",
    "lon": 30.241131,
    "lat": 37.698564,
    "alt": 1214
  },
  {
    "dhv_id": "5339",
    "name": "Atena Lucana",
    "desc": "Atena Lucana SP, GS und HG, S-SW",
    "dhv_link": "https://www.dhv.de/db2/details.php?qi=glp_details&popup=1&item=5339",
    "lon": 15.540486,
    "lat": 40.507531,
    "alt": 891
  },
  {
    "dhv_id": "4892",
    "name": "Athie",
    "desc": "Athie SP, GS, SW-W",
    "dhv_link": "https://www.dhv.de/db2/details.php?qi=glp_details&popup=1&item=4892",
    "lon": 4.272436,
    "lat": 47.573394,
    "alt": 374
  },
  {
    "dhv_id": "5328",
    "name": "Atrigna",
    "desc": "Atrigna SP, GS, W",
    "dhv_link": "https://www.dhv.de/db2/details.php?qi=glp_details&popup=1&item=5328",
    "lon": 15.796403,
    "lat": 39.862233,
    "alt": 104
  },
  {
    "dhv_id": "3198",
    "name": "Aubas",
    "desc": "Aubas SP, GS und HG, N",
    "dhv_link": "https://www.dhv.de/db2/details.php?qi=glp_details&popup=1&item=3198",
    "lon": 1.215194,
    "lat": 45.088608,
    "alt": 189
  },
  {
    "dhv_id": "4883",
    "name": "Auberville",
    "desc": "Auberville SP, GS und HG, NW-N",
    "dhv_link": "https://www.dhv.de/db2/details.php?qi=glp_details&popup=1&item=4883",
    "lon": -0.018875,
    "lat": 49.318417,
    "alt": 63
  },
  {
    "dhv_id": "4996",
    "name": "Aucun",
    "desc": "Aucun SP, GS und HG, SO",
    "dhv_link": "https://www.dhv.de/db2/details.php?qi=glp_details&popup=1&item=4996",
    "lon": -0.196383,
    "lat": 42.990242,
    "alt": 1370
  },
  {
    "dhv_id": "536",
    "name": "Auen-Eckweiler",
    "desc": "Auen - Eckweiler, Auen-Eckweiler SP, GS und HG, S-W",
    "dhv_link": "https://www.dhv.de/db2/details.php?qi=glp_details&popup=1&item=536",
    "lon": 7.604881,
    "lat": 49.839244,
    "alt": 380
  },
  {
    "dhv_id": "5734",
    "name": "Auenheim Schutzwall",
    "desc": "Schulungsgelände Auenheim Schutzwall, Auenheim Schutzwall SP, GS, ONO-O",
    "dhv_link": "https://www.dhv.de/db2/details.php?qi=glp_details&popup=1&item=5734",
    "lon": 7.826258,
    "lat": 48.599758,
    "alt": 160
  },
  {
    "dhv_id": "438",
    "name": "Auf dem Bichel / Auf der Höhe",
    "desc": "Auf dem Bichel / Auf der Höhe SP, GS und HG, WSW-WNW",
    "dhv_link": "https://www.dhv.de/db2/details.php?qi=glp_details&popup=1&item=438",
    "lon": 10.519709,
    "lat": 47.621033,
    "alt": 921
  },
  {
    "dhv_id": "239",
    "name": "Auf dem Harsberg",
    "desc": "Auf dem Harsberg SP, GS und HG, SW",
    "dhv_link": "https://www.dhv.de/db2/details.php?qi=glp_details&popup=1&item=239",
    "lon": 10.372617,
    "lat": 51.074464,
    "alt": 465
  },
  {
    "dhv_id": "605",
    "name": "Auf dem unteren Mergesfeld",
    "desc": "Auf dem unteren Mergesfeld SP, GS und HG, SSW",
    "dhv_link": "https://www.dhv.de/db2/details.php?qi=glp_details&popup=1&item=605",
    "lon": 7.787222,
    "lat": 49.871944,
    "alt": 246
  },
  {
    "dhv_id": "1092",
    "name": "Auf dem Wakenfelde",
    "desc": "Auf dem Wakenfelde SP, GS und HG, SO",
    "dhv_link": "https://www.dhv.de/db2/details.php?qi=glp_details&popup=1&item=1092",
    "lon": 8.62474,
    "lat": 51.289164,
    "alt": 650
  },
  {
    "dhv_id": "2404",
    "name": "Auf der Ecke",
    "desc": "Auf der Ecke SP, GS, SW",
    "dhv_link": "https://www.dhv.de/db2/details.php?qi=glp_details&popup=1&item=2404",
    "lon": 8.368569,
    "lat": 50.890594,
    "alt": 560
  },
  {
    "dhv_id": "3046",
    "name": "Aunay",
    "desc": "Aunay SP, GS und HG, NW",
    "dhv_link": "https://www.dhv.de/db2/details.php?qi=glp_details&popup=1&item=3046",
    "lon": -0.654989,
    "lat": 49.001867,
    "alt": 265
  },
  {
    "dhv_id": "5367",
    "name": "Aurafreida",
    "desc": "Aurafreida SP, GS, SW",
    "dhv_link": "https://www.dhv.de/db2/details.php?qi=glp_details&popup=1&item=5367",
    "lon": 10.092411,
    "lat": 46.372947,
    "alt": 2135
  },
  {
    "dhv_id": "5279",
    "name": "Aurdal",
    "desc": "Aurdal SP, GS, SW",
    "dhv_link": "https://www.dhv.de/db2/details.php?qi=glp_details&popup=1&item=5279",
    "lon": 9.434372,
    "lat": 60.93805,
    "alt": 966
  },
  {
    "dhv_id": "4551",
    "name": "Aurland",
    "desc": "Aurland SP, GS, W-NW",
    "dhv_link": "https://www.dhv.de/db2/details.php?qi=glp_details&popup=1&item=4551",
    "lon": 7.225464,
    "lat": 60.918558,
    "alt": 850
  },
  {
    "dhv_id": "2140",
    "name": "Auron",
    "desc": "Auron SP, GS und HG, NO-SO",
    "dhv_link": "https://www.dhv.de/db2/details.php?qi=glp_details&popup=1&item=2140",
    "lon": 6.904488,
    "lat": 44.236342,
    "alt": 2231
  },
  {
    "dhv_id": "1080",
    "name": "Aussichtswiese",
    "desc": "Aussichtswiese SP, GS, SW-W",
    "dhv_link": "https://www.dhv.de/db2/details.php?qi=glp_details&popup=1&item=1080",
    "lon": 9.083195,
    "lat": 49.392238,
    "alt": 290
  },
  {
    "dhv_id": "1876",
    "name": "Aussois 1",
    "desc": "Aussois SP 1, GS und HG, SO",
    "dhv_link": "https://www.dhv.de/db2/details.php?qi=glp_details&popup=1&item=1876",
    "lon": 6.734244,
    "lat": 45.247481,
    "alt": 2149
  },
  {
    "dhv_id": "1876",
    "name": "Aussois 2",
    "desc": "Aussois SP 2, GS und HG, SO",
    "dhv_link": "https://www.dhv.de/db2/details.php?qi=glp_details&popup=1&item=1876",
    "lon": 6.73785,
    "lat": 45.262222,
    "alt": 2576
  },
  {
    "dhv_id": "1876",
    "name": "Aussois 3",
    "desc": "Aussois SP 3, GS und HG, O-S",
    "dhv_link": "https://www.dhv.de/db2/details.php?qi=glp_details&popup=1&item=1876",
    "lon": 6.736742,
    "lat": 45.254094,
    "alt": 2334
  },
  {
    "dhv_id": "4936",
    "name": "Auteuil",
    "desc": "Auteuil SP, GS, N",
    "dhv_link": "https://www.dhv.de/db2/details.php?qi=glp_details&popup=1&item=4936",
    "lon": 2.091106,
    "lat": 49.330669,
    "alt": 196
  },
  {
    "dhv_id": "3448",
    "name": "Avdellero",
    "desc": "Avdellero SP, GS, SO",
    "dhv_link": "https://www.dhv.de/db2/details.php?qi=glp_details&popup=1&item=3448",
    "lon": 33.568719,
    "lat": 35.021442,
    "alt": 260
  },
  {
    "dhv_id": "2494",
    "name": "Avdou 1",
    "desc": "Avdou SP 1, GS und HG, NW",
    "dhv_link": "https://www.dhv.de/db2/details.php?qi=glp_details&popup=1&item=2494",
    "lon": 25.432011,
    "lat": 35.219053,
    "alt": 600
  },
  {
    "dhv_id": "2494",
    "name": "Avdou 2",
    "desc": "Avdou SP 2, GS und HG, W-NW",
    "dhv_link": "https://www.dhv.de/db2/details.php?qi=glp_details&popup=1&item=2494",
    "lon": 25.427458,
    "lat": 35.216406,
    "alt": 576
  },
  {
    "dhv_id": "5381",
    "name": "Avellino",
    "desc": "Avellino SP, GS, SW-W",
    "dhv_link": "https://www.dhv.de/db2/details.php?qi=glp_details&popup=1&item=5381",
    "lon": 14.879725,
    "lat": 40.883539,
    "alt": 845
  },
  {
    "dhv_id": "2927",
    "name": "Avia",
    "desc": "Avia SP, GS und HG, S",
    "dhv_link": "https://www.dhv.de/db2/details.php?qi=glp_details&popup=1&item=2927",
    "lon": 1.797772,
    "lat": 42.075192,
    "alt": 1047
  },
  {
    "dhv_id": "1917",
    "name": "Aviano 1",
    "desc": "Aviano SP 1, GS und HG, S",
    "dhv_link": "https://www.dhv.de/db2/details.php?qi=glp_details&popup=1&item=1917",
    "lon": 12.521706,
    "lat": 46.0796,
    "alt": 1007
  },
  {
    "dhv_id": "1917",
    "name": "Aviano 2",
    "desc": "Aviano SP 2, GS und HG, S",
    "dhv_link": "https://www.dhv.de/db2/details.php?qi=glp_details&popup=1&item=1917",
    "lon": 12.529978,
    "lat": 46.087336,
    "alt": 1087
  },
  {
    "dhv_id": "1917",
    "name": "Aviano 3",
    "desc": "Aviano SP 3, GS und HG, SO",
    "dhv_link": "https://www.dhv.de/db2/details.php?qi=glp_details&popup=1&item=1917",
    "lon": 12.540765,
    "lat": 46.08109,
    "alt": 779
  },
  {
    "dhv_id": "4615",
    "name": "Avister",
    "desc": "Avister SP, GS und HG, SW-W",
    "dhv_link": "https://www.dhv.de/db2/details.php?qi=glp_details&popup=1&item=4615",
    "lon": 5.571753,
    "lat": 50.547656,
    "alt": 190
  },
  {
    "dhv_id": "4784",
    "name": "Avlona",
    "desc": "Avlona SP, GS, NW-N",
    "dhv_link": "https://www.dhv.de/db2/details.php?qi=glp_details&popup=1&item=4784",
    "lon": 23.675022,
    "lat": 38.244122,
    "alt": 499
  },
  {
    "dhv_id": "3871",
    "name": "Avola",
    "desc": "Avola SP, GS, SO",
    "dhv_link": "https://www.dhv.de/db2/details.php?qi=glp_details&popup=1&item=3871",
    "lon": 15.15065,
    "lat": 36.951519,
    "alt": 264
  },
  {
    "dhv_id": "2305",
    "name": "Avoriaz",
    "desc": "Avoriaz SP, GS, W",
    "dhv_link": "https://www.dhv.de/db2/details.php?qi=glp_details&popup=1&item=2305",
    "lon": 6.767836,
    "lat": 46.194425,
    "alt": 1797
  },
  {
    "dhv_id": "1576",
    "name": "Axalp Skiberg",
    "desc": "Axalp Skiberg SP, GS, W-NW",
    "dhv_link": "https://www.dhv.de/db2/details.php?qi=glp_details&popup=1&item=1576",
    "lon": 8.035386,
    "lat": 46.716394,
    "alt": 1593
  },
  {
    "dhv_id": "5128",
    "name": "Ayanlar",
    "desc": "Ayanlar SP, GS, SO",
    "dhv_link": "https://www.dhv.de/db2/details.php?qi=glp_details&popup=1&item=5128",
    "lon": 30.548022,
    "lat": 37.043911,
    "alt": 528
  },
  {
    "dhv_id": "4135",
    "name": "Ayas",
    "desc": "Ayas SP, GS, W-NW",
    "dhv_link": "https://www.dhv.de/db2/details.php?qi=glp_details&popup=1&item=4135",
    "lon": 32.328375,
    "lat": 40.031114,
    "alt": 1135
  },
  {
    "dhv_id": "3245",
    "name": "Ayet",
    "desc": "Ayet SP, GS und HG, NW",
    "dhv_link": "https://www.dhv.de/db2/details.php?qi=glp_details&popup=1&item=3245",
    "lon": 0.333439,
    "lat": 44.339911,
    "alt": 152
  },
  {
    "dhv_id": "2844",
    "name": "Azinha",
    "desc": "Azinha SP, GS und HG, SW",
    "dhv_link": "https://www.dhv.de/db2/details.php?qi=glp_details&popup=1&item=2844",
    "lon": -7.455536,
    "lat": 40.430828,
    "alt": 1226
  },
  {
    "dhv_id": "2846",
    "name": "Azinheira",
    "desc": "Azinheira SP, GS und HG, N",
    "dhv_link": "https://www.dhv.de/db2/details.php?qi=glp_details&popup=1&item=2846",
    "lon": -7.464614,
    "lat": 40.400744,
    "alt": 1023
  },
  {
    "dhv_id": "2818",
    "name": "Baba",
    "desc": "Baba SP, GS und HG, NW, S",
    "dhv_link": "https://www.dhv.de/db2/details.php?qi=glp_details&popup=1&item=2818",
    "lon": 18.670686,
    "lat": 49.044239,
    "alt": 1003
  },
  {
    "dhv_id": "4199",
    "name": "Babadag 1",
    "desc": "Babadag SP 1, GS, SW-W",
    "dhv_link": "https://www.dhv.de/db2/details.php?qi=glp_details&popup=1&item=4199",
    "lon": 29.169717,
    "lat": 36.539094,
    "alt": 1719
  },
  {
    "dhv_id": "4199",
    "name": "Babadag 2",
    "desc": "Babadag SP 2, GS, SO-SW, N-NO",
    "dhv_link": "https://www.dhv.de/db2/details.php?qi=glp_details&popup=1&item=4199",
    "lon": 29.181392,
    "lat": 36.530167,
    "alt": 1939
  },
  {
    "dhv_id": "4199",
    "name": "Babadag 3",
    "desc": "Babadag SP 3, GS, SW-W",
    "dhv_link": "https://www.dhv.de/db2/details.php?qi=glp_details&popup=1&item=4199",
    "lon": 29.150761,
    "lat": 36.528492,
    "alt": 856
  },
  {
    "dhv_id": "4199",
    "name": "Babadag 4",
    "desc": "Babadag SP 4, GS, N-NO",
    "dhv_link": "https://www.dhv.de/db2/details.php?qi=glp_details&popup=1&item=4199",
    "lon": 29.1725,
    "lat": 36.537222,
    "alt": 1784
  },
  {
    "dhv_id": "4199",
    "name": "Babadag 5",
    "desc": "Babadag SP 5, GS, SW-NW",
    "dhv_link": "https://www.dhv.de/db2/details.php?qi=glp_details&popup=1&item=4199",
    "lon": 29.155833,
    "lat": 36.549167,
    "alt": 1192
  },
  {
    "dhv_id": "3631",
    "name": "Babie Doly",
    "desc": "Babie Doly SP, GS, NO",
    "dhv_link": "https://www.dhv.de/db2/details.php?qi=glp_details&popup=1&item=3631",
    "lon": 18.540642,
    "lat": 54.581386,
    "alt": 32
  },
  {
    "dhv_id": "2759",
    "name": "Babie",
    "desc": "Babie SP, GS, NO",
    "dhv_link": "https://www.dhv.de/db2/details.php?qi=glp_details&popup=1&item=2759",
    "lon": 21.482986,
    "lat": 49.055325,
    "alt": 498
  },
  {
    "dhv_id": "4456",
    "name": "Bache",
    "desc": "Bache SP, GS und HG, SO",
    "dhv_link": "https://www.dhv.de/db2/details.php?qi=glp_details&popup=1&item=4456",
    "lon": -3.149219,
    "lat": 52.264594,
    "alt": 562
  },
  {
    "dhv_id": "1623",
    "name": "Bächigalen",
    "desc": "Bächigalen SP, GS, SO",
    "dhv_link": "https://www.dhv.de/db2/details.php?qi=glp_details&popup=1&item=1623",
    "lon": 8.227353,
    "lat": 46.487744,
    "alt": 2455
  },
  {
    "dhv_id": "1050",
    "name": "Bad Salzig",
    "desc": "Bad Salzig (Boppard - Weiler), Bad Salzig SP, GS, N-O",
    "dhv_link": "https://www.dhv.de/db2/details.php?qi=glp_details&popup=1&item=1050",
    "lon": 7.615242,
    "lat": 50.193859,
    "alt": 385
  },
  {
    "dhv_id": "4184",
    "name": "Bademagaci",
    "desc": "Bademagaci SP, GS, NO-SO",
    "dhv_link": "https://www.dhv.de/db2/details.php?qi=glp_details&popup=1&item=4184",
    "lon": 30.474269,
    "lat": 37.221986,
    "alt": 859
  },
  {
    "dhv_id": "3832",
    "name": "Bagaladi",
    "desc": "Bagaladi SP, GS, S",
    "dhv_link": "https://www.dhv.de/db2/details.php?qi=glp_details&popup=1&item=3832",
    "lon": 15.808497,
    "lat": 38.036425,
    "alt": 966
  },
  {
    "dhv_id": "3823",
    "name": "Bagnara",
    "desc": "Bagnara SP, GS, NW",
    "dhv_link": "https://www.dhv.de/db2/details.php?qi=glp_details&popup=1&item=3823",
    "lon": 15.817972,
    "lat": 38.281767,
    "alt": 534
  },
  {
    "dhv_id": "4322",
    "name": "Baildon",
    "desc": "Baildon SP, GS, O",
    "dhv_link": "https://www.dhv.de/db2/details.php?qi=glp_details&popup=1&item=4322",
    "lon": -1.784394,
    "lat": 53.858531,
    "alt": 262
  },
  {
    "dhv_id": "2121",
    "name": "Baita",
    "desc": "Baita SP, GS, S",
    "dhv_link": "https://www.dhv.de/db2/details.php?qi=glp_details&popup=1&item=2121",
    "lon": 10.76,
    "lat": 45.924167,
    "alt": 1481
  },
  {
    "dhv_id": "2939",
    "name": "Baix Camp",
    "desc": "Baix Camp SP, GS, SO-S",
    "dhv_link": "https://www.dhv.de/db2/details.php?qi=glp_details&popup=1&item=2939",
    "lon": 0.983636,
    "lat": 41.243919,
    "alt": 942
  },
  {
    "dhv_id": "5587",
    "name": "Bakadjik",
    "desc": "Bakadjik SP, GS und HG, NW-N",
    "dhv_link": "https://www.dhv.de/db2/details.php?qi=glp_details&popup=1&item=5587",
    "lon": 26.645833,
    "lat": 42.451122,
    "alt": 480
  },
  {
    "dhv_id": "4532",
    "name": "Bakkejord",
    "desc": "Bakkejord SP, GS, SO-SW",
    "dhv_link": "https://www.dhv.de/db2/details.php?qi=glp_details&popup=1&item=4532",
    "lon": 18.225647,
    "lat": 69.527572,
    "alt": 182
  },
  {
    "dhv_id": "4019",
    "name": "Bakota",
    "desc": "Bakota SP, GS, O-SO",
    "dhv_link": "https://www.dhv.de/db2/details.php?qi=glp_details&popup=1&item=4019",
    "lon": 26.956508,
    "lat": 48.6111,
    "alt": 242
  },
  {
    "dhv_id": "5112",
    "name": "Balatli",
    "desc": "Balatli SP, GS, NW",
    "dhv_link": "https://www.dhv.de/db2/details.php?qi=glp_details&popup=1&item=5112",
    "lon": 28.102058,
    "lat": 39.356353,
    "alt": 351
  },
  {
    "dhv_id": "5633",
    "name": "Balbarrow",
    "desc": "Balbarrow SP, GS und HG, SW",
    "dhv_link": "https://www.dhv.de/db2/details.php?qi=glp_details&popup=1&item=5633",
    "lon": -2.322983,
    "lat": 50.85105,
    "alt": 256
  },
  {
    "dhv_id": "3571",
    "name": "Bald Hill",
    "desc": "Bald Hill SP, GS und HG, NO",
    "dhv_link": "https://www.dhv.de/db2/details.php?qi=glp_details&popup=1&item=3571",
    "lon": 86.160492,
    "lat": 55.37805,
    "alt": 213
  },
  {
    "dhv_id": "4078",
    "name": "Balea",
    "desc": "Balea SP, GS, N",
    "dhv_link": "https://www.dhv.de/db2/details.php?qi=glp_details&popup=1&item=4078",
    "lon": 24.615125,
    "lat": 45.604056,
    "alt": 2044
  },
  {
    "dhv_id": "285",
    "name": "Balgheim",
    "desc": "Balgheim SP, HG, SW",
    "dhv_link": "https://www.dhv.de/db2/details.php?qi=glp_details&popup=1&item=285",
    "lon": 8.782024,
    "lat": 48.066063,
    "alt": 750
  },
  {
    "dhv_id": "4324",
    "name": "Balladen",
    "desc": "Balladen SP, GS, W",
    "dhv_link": "https://www.dhv.de/db2/details.php?qi=glp_details&popup=1&item=4324",
    "lon": -2.280711,
    "lat": 53.688489,
    "alt": 339
  },
  {
    "dhv_id": "5632",
    "name": "Ballard Down",
    "desc": "Ballard Down SP, GS und HG, SO-S",
    "dhv_link": "https://www.dhv.de/db2/details.php?qi=glp_details&popup=1&item=5632",
    "lon": -1.943381,
    "lat": 50.6306,
    "alt": 96
  },
  {
    "dhv_id": "3098",
    "name": "Ballon D'Alsace 1",
    "desc": "Ballon D'Alsace SP 1, GS und HG, NW",
    "dhv_link": "https://www.dhv.de/db2/details.php?qi=glp_details&popup=1&item=3098",
    "lon": 6.841267,
    "lat": 47.825128,
    "alt": 1232
  },
  {
    "dhv_id": "3098",
    "name": "Ballon D'Alsace 2",
    "desc": "Ballon D'Alsace SP 2, GS und HG, NO",
    "dhv_link": "https://www.dhv.de/db2/details.php?qi=glp_details&popup=1&item=3098",
    "lon": 6.844683,
    "lat": 47.824339,
    "alt": 1230
  },
  {
    "dhv_id": "3098",
    "name": "Ballon D'Alsace 3",
    "desc": "Ballon D'Alsace SP 3, GS und HG, SO",
    "dhv_link": "https://www.dhv.de/db2/details.php?qi=glp_details&popup=1&item=3098",
    "lon": 6.846019,
    "lat": 47.822683,
    "alt": 1235
  },
  {
    "dhv_id": "4801",
    "name": "Balos",
    "desc": "Balos SP, GS, O",
    "dhv_link": "https://www.dhv.de/db2/details.php?qi=glp_details&popup=1&item=4801",
    "lon": 23.605264,
    "lat": 35.527461,
    "alt": 160
  },
  {
    "dhv_id": "782",
    "name": "Balsberg",
    "desc": "Balsberg SP, GS, NO, O",
    "dhv_link": "https://www.dhv.de/db2/details.php?qi=glp_details&popup=1&item=782",
    "lon": 12.446179,
    "lat": 47.723678,
    "alt": 750
  },
  {
    "dhv_id": "1892",
    "name": "Ban Rouge",
    "desc": "Ban Rouge SP, GS und HG, W",
    "dhv_link": "https://www.dhv.de/db2/details.php?qi=glp_details&popup=1&item=1892",
    "lon": 6.582608,
    "lat": 45.803233,
    "alt": 1958
  },
  {
    "dhv_id": "3037",
    "name": "Banc des Deux Amants",
    "desc": "Banc des Deux Amants SP, GS und HG, NW",
    "dhv_link": "https://www.dhv.de/db2/details.php?qi=glp_details&popup=1&item=3037",
    "lon": 1.246158,
    "lat": 49.319067,
    "alt": 107
  },
  {
    "dhv_id": "4121",
    "name": "Bandirma",
    "desc": "Bandirma SP, GS, NO",
    "dhv_link": "https://www.dhv.de/db2/details.php?qi=glp_details&popup=1&item=4121",
    "lon": 27.945722,
    "lat": 40.356511,
    "alt": 41
  },
  {
    "dhv_id": "5282",
    "name": "Bangsberg 1",
    "desc": "Bangsberg SP 1, GS und HG, SO",
    "dhv_link": "https://www.dhv.de/db2/details.php?qi=glp_details&popup=1&item=5282",
    "lon": 10.897664,
    "lat": 60.845042,
    "alt": 460
  },
  {
    "dhv_id": "5282",
    "name": "Bangsberg 2",
    "desc": "Bangsberg SP 2, GS und HG, NO",
    "dhv_link": "https://www.dhv.de/db2/details.php?qi=glp_details&popup=1&item=5282",
    "lon": 10.898719,
    "lat": 60.848603,
    "alt": 399
  },
  {
    "dhv_id": "2668",
    "name": "Banjaluka",
    "desc": "Banjaluka SP, GS, N",
    "dhv_link": "https://www.dhv.de/db2/details.php?qi=glp_details&popup=1&item=2668",
    "lon": 16.974714,
    "lat": 44.609217,
    "alt": 798
  },
  {
    "dhv_id": "5564",
    "name": "Banjol",
    "desc": "Banjol SP, GS, O-SO",
    "dhv_link": "https://www.dhv.de/db2/details.php?qi=glp_details&popup=1&item=5564",
    "lon": 14.787783,
    "lat": 44.763167,
    "alt": 284
  },
  {
    "dhv_id": "617",
    "name": "Bannholz - Kleingartach",
    "desc": "Bannholz - Kleingartach SP, GS und HG, W",
    "dhv_link": "https://www.dhv.de/db2/details.php?qi=glp_details&popup=1&item=617",
    "lon": 8.987599,
    "lat": 49.098866,
    "alt": 285
  },
  {
    "dhv_id": "2789",
    "name": "Baranovo JZ",
    "desc": "Baranovo JZ SP, GS und HG, SW",
    "dhv_link": "https://www.dhv.de/db2/details.php?qi=glp_details&popup=1&item=2789",
    "lon": 19.143378,
    "lat": 48.786839,
    "alt": 966
  },
  {
    "dhv_id": "5015",
    "name": "Barcelonnette",
    "desc": "Barcelonnette SP, GS und HG, S-SW",
    "dhv_link": "https://www.dhv.de/db2/details.php?qi=glp_details&popup=1&item=5015",
    "lon": 6.667203,
    "lat": 44.401931,
    "alt": 1601
  },
  {
    "dhv_id": "2900",
    "name": "Barcia de los Montes",
    "desc": "Barcia de los Montes SP, GS, NO",
    "dhv_link": "https://www.dhv.de/db2/details.php?qi=glp_details&popup=1&item=2900",
    "lon": -3.331447,
    "lat": 42.698506,
    "alt": 1156
  },
  {
    "dhv_id": "644",
    "name": "Bärenfalle",
    "desc": "Alpsee Skizirkus, Bärenfalle SP, GS, N",
    "dhv_link": "https://www.dhv.de/db2/details.php?qi=glp_details&popup=1&item=644",
    "lon": 10.14274,
    "lat": 47.555415,
    "alt": 1140
  },
  {
    "dhv_id": "2060",
    "name": "Bärensolspitz",
    "desc": "Bärensolspitz SP, GS, SO-S",
    "dhv_link": "https://www.dhv.de/db2/details.php?qi=glp_details&popup=1&item=2060",
    "lon": 8.996386,
    "lat": 47.100239,
    "alt": 1812
  },
  {
    "dhv_id": "2142",
    "name": "Bargemon",
    "desc": "Bargemon SP, GS und HG, SO",
    "dhv_link": "https://www.dhv.de/db2/details.php?qi=glp_details&popup=1&item=2142",
    "lon": 6.561556,
    "lat": 43.638817,
    "alt": 1015
  },
  {
    "dhv_id": "5208",
    "name": "Bärgli",
    "desc": "Bärgli SP, GS und HG, SO",
    "dhv_link": "https://www.dhv.de/db2/details.php?qi=glp_details&popup=1&item=5208",
    "lon": 9.818372,
    "lat": 46.984456,
    "alt": 2130
  },
  {
    "dhv_id": "3228",
    "name": "Barjac",
    "desc": "Barjac SP, GS und HG, W",
    "dhv_link": "https://www.dhv.de/db2/details.php?qi=glp_details&popup=1&item=3228",
    "lon": 3.418561,
    "lat": 44.502067,
    "alt": 972
  },
  {
    "dhv_id": "4295",
    "name": "Barkin Fell 1",
    "desc": "Barkin Fell SP 1, GS, O-SO",
    "dhv_link": "https://www.dhv.de/db2/details.php?qi=glp_details&popup=1&item=4295",
    "lon": -2.495744,
    "lat": 54.276389,
    "alt": 415
  },
  {
    "dhv_id": "4295",
    "name": "Barkin Fell 2",
    "desc": "Barkin Fell SP 2, GS, O-SO",
    "dhv_link": "https://www.dhv.de/db2/details.php?qi=glp_details&popup=1&item=4295",
    "lon": -2.501042,
    "lat": 54.276322,
    "alt": 532
  },
  {
    "dhv_id": "3032",
    "name": "Barneville-sur-Seine",
    "desc": "Barneville-sur-Seine SP, GS, N",
    "dhv_link": "https://www.dhv.de/db2/details.php?qi=glp_details&popup=1&item=3032",
    "lon": 0.848667,
    "lat": 49.38805,
    "alt": 127
  },
  {
    "dhv_id": "5721",
    "name": "Bärngschwendt 600 / Skiabfahrt Unternberg",
    "desc": "Bärngschwendt 600 – Skiabfahrt Unternberg, Bärngschwendt 600 / Skiabfahrt Unternberg SP, GS, NO",
    "dhv_link": "https://www.dhv.de/db2/details.php?qi=glp_details&popup=1&item=5721",
    "lon": 12.626667,
    "lat": 47.7275,
    "alt": 1310
  },
  {
    "dhv_id": "4871",
    "name": "Barranco Hondo",
    "desc": "Barranco Hondo SP, GS, SO",
    "dhv_link": "https://www.dhv.de/db2/details.php?qi=glp_details&popup=1&item=4871",
    "lon": -16.368933,
    "lat": 28.398942,
    "alt": 657
  },
  {
    "dhv_id": "3397",
    "name": "Barrosa 1",
    "desc": "Barrosa SP 1, GS, NW",
    "dhv_link": "https://www.dhv.de/db2/details.php?qi=glp_details&popup=1&item=3397",
    "lon": -25.496553,
    "lat": 37.764736,
    "alt": 869
  },
  {
    "dhv_id": "3397",
    "name": "Barrosa 2",
    "desc": "Barrosa SP 2, GS, SO",
    "dhv_link": "https://www.dhv.de/db2/details.php?qi=glp_details&popup=1&item=3397",
    "lon": -25.491808,
    "lat": 37.754619,
    "alt": 892
  },
  {
    "dhv_id": "3397",
    "name": "Barrosa 3",
    "desc": "Barrosa SP 3, GS, SSW",
    "dhv_link": "https://www.dhv.de/db2/details.php?qi=glp_details&popup=1&item=3397",
    "lon": -25.493231,
    "lat": 37.761478,
    "alt": 925
  },
  {
    "dhv_id": "3397",
    "name": "Barrosa 4",
    "desc": "Barrosa SP 4, GS, SW-W",
    "dhv_link": "https://www.dhv.de/db2/details.php?qi=glp_details&popup=1&item=3397",
    "lon": -25.492489,
    "lat": 37.750719,
    "alt": 838
  },
  {
    "dhv_id": "343",
    "name": "Bartelmahd",
    "desc": "Mittelstaufen-Zwieselalm, Bartelmahd SP, GS und HG, S",
    "dhv_link": "https://www.dhv.de/db2/details.php?qi=glp_details&popup=1&item=343",
    "lon": 12.837009,
    "lat": 47.750866,
    "alt": 1430
  },
  {
    "dhv_id": "4270",
    "name": "Barton Fell",
    "desc": "Barton Fell SP, GS, NW",
    "dhv_link": "https://www.dhv.de/db2/details.php?qi=glp_details&popup=1&item=4270",
    "lon": -2.825753,
    "lat": 54.585478,
    "alt": 412
  },
  {
    "dhv_id": "5621",
    "name": "Barton on Sea",
    "desc": "Barton on Sea SP, GS, S-SW",
    "dhv_link": "https://www.dhv.de/db2/details.php?qi=glp_details&popup=1&item=5621",
    "lon": -1.660419,
    "lat": 50.735375,
    "alt": 31
  },
  {
    "dhv_id": "2337",
    "name": "Baska 1",
    "desc": "Baska SP 1, GS, NO",
    "dhv_link": "https://www.dhv.de/db2/details.php?qi=glp_details&popup=1&item=2337",
    "lon": 14.739302,
    "lat": 44.95692,
    "alt": 278
  },
  {
    "dhv_id": "2337",
    "name": "Baska 2",
    "desc": "Baska SP 2, GS, S-SW",
    "dhv_link": "https://www.dhv.de/db2/details.php?qi=glp_details&popup=1&item=2337",
    "lon": 14.756964,
    "lat": 44.982075,
    "alt": 344
  },
  {
    "dhv_id": "2735",
    "name": "Baske 1",
    "desc": "Baske SP 1, GS und HG, SO-SW",
    "dhv_link": "https://www.dhv.de/db2/details.php?qi=glp_details&popup=1&item=2735",
    "lon": 18.246607,
    "lat": 48.883563,
    "alt": 898
  },
  {
    "dhv_id": "2735",
    "name": "Baske 2",
    "desc": "Baske SP 2, GS und HG, SO-SW",
    "dhv_link": "https://www.dhv.de/db2/details.php?qi=glp_details&popup=1&item=2735",
    "lon": 18.413333,
    "lat": 49.4375,
    "alt": 645
  },
  {
    "dhv_id": "2154",
    "name": "Bassa di Nara",
    "desc": "Bassa di Nara SP, GS, O-SO",
    "dhv_link": "https://www.dhv.de/db2/details.php?qi=glp_details&popup=1&item=2154",
    "lon": 8.868908,
    "lat": 46.475081,
    "alt": 2107
  },
  {
    "dhv_id": "1551",
    "name": "Bassano 1 (Stella Alpina da Camillo)",
    "desc": "Bassano del Grappa, Bassano SP 1 (Stella Alpina da Camillo), GS, SO-S",
    "dhv_link": "https://www.dhv.de/db2/details.php?qi=glp_details&popup=1&item=1551",
    "lon": 11.763383,
    "lat": 45.819358,
    "alt": 712
  },
  {
    "dhv_id": "1551",
    "name": "Bassano 2 (Bepi)",
    "desc": "Bassano del Grappa, Bassano SP 2 (Bepi), GS, SO-S",
    "dhv_link": "https://www.dhv.de/db2/details.php?qi=glp_details&popup=1&item=1551",
    "lon": 11.768842,
    "lat": 45.823403,
    "alt": 837
  },
  {
    "dhv_id": "1551",
    "name": "Bassano 3 (Pedana Delta)",
    "desc": "Bassano del Grappa, Bassano SP 3 (Pedana Delta), HG, SO",
    "dhv_link": "https://www.dhv.de/db2/details.php?qi=glp_details&popup=1&item=1551",
    "lon": 11.771231,
    "lat": 45.824408,
    "alt": 858
  },
  {
    "dhv_id": "1551",
    "name": "Bassano 4 (Casette)",
    "desc": "Bassano del Grappa, Bassano SP 4 (Casette), GS und HG, W",
    "dhv_link": "https://www.dhv.de/db2/details.php?qi=glp_details&popup=1&item=1551",
    "lon": 11.767958,
    "lat": 45.828264,
    "alt": 980
  },
  {
    "dhv_id": "1551",
    "name": "Bassano 5 (Panettone)",
    "desc": "Bassano del Grappa, Bassano SP 5 (Panettone), GS und HG, SO-SW",
    "dhv_link": "https://www.dhv.de/db2/details.php?qi=glp_details&popup=1&item=1551",
    "lon": 11.803903,
    "lat": 45.86145,
    "alt": 1558
  },
  {
    "dhv_id": "5088",
    "name": "Basse des Feignes",
    "desc": "Basse des Feignes SP, GS, SO",
    "dhv_link": "https://www.dhv.de/db2/details.php?qi=glp_details&popup=1&item=5088",
    "lon": 6.84305,
    "lat": 48.00345,
    "alt": 1011
  },
  {
    "dhv_id": "561",
    "name": "Bastenberg",
    "desc": "Bastenberg SP, GS und HG, NW",
    "dhv_link": "https://www.dhv.de/db2/details.php?qi=glp_details&popup=1&item=561",
    "lon": 9.323798,
    "lat": 51.702838,
    "alt": 198
  },
  {
    "dhv_id": "4426",
    "name": "Batcombe",
    "desc": "Batcombe SP, GS und HG, NW",
    "dhv_link": "https://www.dhv.de/db2/details.php?qi=glp_details&popup=1&item=4426",
    "lon": -2.509992,
    "lat": 50.844017,
    "alt": 251
  },
  {
    "dhv_id": "5004",
    "name": "Batere",
    "desc": "Batere SP, GS, S",
    "dhv_link": "https://www.dhv.de/db2/details.php?qi=glp_details&popup=1&item=5004",
    "lon": 2.547831,
    "lat": 42.504036,
    "alt": 1588
  },
  {
    "dhv_id": "4991",
    "name": "Bauigura 1",
    "desc": "Baigura, Bauigura SP 1, GS, W-NW",
    "dhv_link": "https://www.dhv.de/db2/details.php?qi=glp_details&popup=1&item=4991",
    "lon": -1.293614,
    "lat": 43.290708,
    "alt": 870
  },
  {
    "dhv_id": "4991",
    "name": "Bauigura 2",
    "desc": "Baigura, Bauigura SP 2, GS, NO",
    "dhv_link": "https://www.dhv.de/db2/details.php?qi=glp_details&popup=1&item=4991",
    "lon": -1.288817,
    "lat": 43.294706,
    "alt": 840
  },
  {
    "dhv_id": "4893",
    "name": "Baulme la Roche 1",
    "desc": "Baulme la Roche SP 1, GS und HG, SW",
    "dhv_link": "https://www.dhv.de/db2/details.php?qi=glp_details&popup=1&item=4893",
    "lon": 4.801672,
    "lat": 47.348867,
    "alt": 567
  },
  {
    "dhv_id": "4893",
    "name": "Baulme la Roche 2",
    "desc": "Baulme la Roche SP 2, HG, SW-W",
    "dhv_link": "https://www.dhv.de/db2/details.php?qi=glp_details&popup=1&item=4893",
    "lon": 4.799486,
    "lat": 47.352769,
    "alt": 539
  },
  {
    "dhv_id": "3107",
    "name": "Baume les Dames",
    "desc": "Baume les Dames SP, GS und HG, W",
    "dhv_link": "https://www.dhv.de/db2/details.php?qi=glp_details&popup=1&item=3107",
    "lon": 6.380772,
    "lat": 47.348883,
    "alt": 465
  },
  {
    "dhv_id": "5044",
    "name": "Baumes-de-Venise",
    "desc": "Baumes-de-Venise SP, GS, SO-S",
    "dhv_link": "https://www.dhv.de/db2/details.php?qi=glp_details&popup=1&item=5044",
    "lon": 5.017161,
    "lat": 44.125914,
    "alt": 240
  },
  {
    "dhv_id": "5331",
    "name": "Baunei",
    "desc": "Baunei SP, GS, SW",
    "dhv_link": "https://www.dhv.de/db2/details.php?qi=glp_details&popup=1&item=5331",
    "lon": 9.664983,
    "lat": 40.034394,
    "alt": 650
  },
  {
    "dhv_id": "1049",
    "name": "Bausenberg",
    "desc": "Bausenberg SP, GS, SO-S",
    "dhv_link": "https://www.dhv.de/db2/details.php?qi=glp_details&popup=1&item=1049",
    "lon": 7.222427,
    "lat": 50.464785,
    "alt": 317
  },
  {
    "dhv_id": "4539",
    "name": "Bavallen",
    "desc": "Bavallen SP, GS, O-SO",
    "dhv_link": "https://www.dhv.de/db2/details.php?qi=glp_details&popup=1&item=4539",
    "lon": 6.403144,
    "lat": 60.645944,
    "alt": 802
  },
  {
    "dhv_id": "4156",
    "name": "Bayindir",
    "desc": "Bayindir SP, GS, SO",
    "dhv_link": "https://www.dhv.de/db2/details.php?qi=glp_details&popup=1&item=4156",
    "lon": 27.649094,
    "lat": 38.239842,
    "alt": 650
  },
  {
    "dhv_id": "4103",
    "name": "Bayramören Nord",
    "desc": "Bayramören Nord SP, GS, N",
    "dhv_link": "https://www.dhv.de/db2/details.php?qi=glp_details&popup=1&item=4103",
    "lon": 33.275019,
    "lat": 40.9312,
    "alt": 1649
  },
  {
    "dhv_id": "4100",
    "name": "Bayramören",
    "desc": "Bayramören SP, GS, SO-SW",
    "dhv_link": "https://www.dhv.de/db2/details.php?qi=glp_details&popup=1&item=4100",
    "lon": 33.209472,
    "lat": 40.971706,
    "alt": 1308
  },
  {
    "dhv_id": "3573",
    "name": "Bazandaiha",
    "desc": "Bazandaiha SP, GS und HG, SO-S",
    "dhv_link": "https://www.dhv.de/db2/details.php?qi=glp_details&popup=1&item=3573",
    "lon": 90.633992,
    "lat": 54.903281,
    "alt": 428
  },
  {
    "dhv_id": "5620",
    "name": "Beachy Head",
    "desc": "Beachy Head SP, GS, SO",
    "dhv_link": "https://www.dhv.de/db2/details.php?qi=glp_details&popup=1&item=5620",
    "lon": 0.252911,
    "lat": 50.740017,
    "alt": 163
  },
  {
    "dhv_id": "4366",
    "name": "Beacon",
    "desc": "Beacon SP, GS und HG, W",
    "dhv_link": "https://www.dhv.de/db2/details.php?qi=glp_details&popup=1&item=4366",
    "lon": -2.339356,
    "lat": 52.103625,
    "alt": 391
  },
  {
    "dhv_id": "4919",
    "name": "Beaulieu-sur-Layon 1",
    "desc": "Beaulieu-sur-Layon SP 1, GS und HG, SW-W",
    "dhv_link": "https://www.dhv.de/db2/details.php?qi=glp_details&popup=1&item=4919",
    "lon": -0.599653,
    "lat": 47.309722,
    "alt": 68
  },
  {
    "dhv_id": "4919",
    "name": "Beaulieu-sur-Layon 2",
    "desc": "Beaulieu-sur-Layon SP 2, GS und HG, SW",
    "dhv_link": "https://www.dhv.de/db2/details.php?qi=glp_details&popup=1&item=4919",
    "lon": -0.601156,
    "lat": 47.311025,
    "alt": 58
  },
  {
    "dhv_id": "2511",
    "name": "Beauraing",
    "desc": "Beauraing SP, GS und HG, N",
    "dhv_link": "https://www.dhv.de/db2/details.php?qi=glp_details&popup=1&item=2511",
    "lon": 5.009861,
    "lat": 50.112867,
    "alt": 261
  },
  {
    "dhv_id": "1815",
    "name": "Beausses",
    "desc": "Beausses SP, GS und HG, W",
    "dhv_link": "https://www.dhv.de/db2/details.php?qi=glp_details&popup=1&item=1815",
    "lon": 5.476178,
    "lat": 43.941856,
    "alt": 936
  },
  {
    "dhv_id": "4066",
    "name": "Beclean",
    "desc": "Beclean SP, GS, SO",
    "dhv_link": "https://www.dhv.de/db2/details.php?qi=glp_details&popup=1&item=4066",
    "lon": 25.323672,
    "lat": 46.336214,
    "alt": 668
  },
  {
    "dhv_id": "5379",
    "name": "Bedöll",
    "desc": "Bedöll SP, GS, SW",
    "dhv_link": "https://www.dhv.de/db2/details.php?qi=glp_details&popup=1&item=5379",
    "lon": 9.00435,
    "lat": 45.906736,
    "alt": 1148
  },
  {
    "dhv_id": "2403",
    "name": "Beedenkirchen",
    "desc": "Beedenkirchen SP, GS und HG, WNW-NNO",
    "dhv_link": "https://www.dhv.de/db2/details.php?qi=glp_details&popup=1&item=2403",
    "lon": 8.731111,
    "lat": 49.729167,
    "alt": 366
  },
  {
    "dhv_id": "4438",
    "name": "Beesands",
    "desc": "Beesands SP, GS und HG, NO-O",
    "dhv_link": "https://www.dhv.de/db2/details.php?qi=glp_details&popup=1&item=4438",
    "lon": -3.659597,
    "lat": 50.248283,
    "alt": 75
  },
  {
    "dhv_id": "4899",
    "name": "Beg Leguer",
    "desc": "Beg Leguer SP, GS und HG, SW",
    "dhv_link": "https://www.dhv.de/db2/details.php?qi=glp_details&popup=1&item=4899",
    "lon": -3.549281,
    "lat": 48.750481,
    "alt": 73
  },
  {
    "dhv_id": "5131",
    "name": "Begis",
    "desc": "Begis SP, GS und HG, NO",
    "dhv_link": "https://www.dhv.de/db2/details.php?qi=glp_details&popup=1&item=5131",
    "lon": 30.097278,
    "lat": 36.896208,
    "alt": 1564
  },
  {
    "dhv_id": "1580",
    "name": "Beichlen 1",
    "desc": "Beichlen SP 1, GS, W-N",
    "dhv_link": "https://www.dhv.de/db2/details.php?qi=glp_details&popup=1&item=1580",
    "lon": 7.969456,
    "lat": 46.895019,
    "alt": 1714
  },
  {
    "dhv_id": "1580",
    "name": "Beichlen 2",
    "desc": "Beichlen SP 2, GS, SO",
    "dhv_link": "https://www.dhv.de/db2/details.php?qi=glp_details&popup=1&item=1580",
    "lon": 7.973042,
    "lat": 46.897167,
    "alt": 1751
  },
  {
    "dhv_id": "3266",
    "name": "Beit Rimon",
    "desc": "Beit Rimon SP, GS, NW-N",
    "dhv_link": "https://www.dhv.de/db2/details.php?qi=glp_details&popup=1&item=3266",
    "lon": 35.325851,
    "lat": 32.786478,
    "alt": 400
  },
  {
    "dhv_id": "3387",
    "name": "Beixalis",
    "desc": "Beixalis SP, GS, O-SO",
    "dhv_link": "https://www.dhv.de/db2/details.php?qi=glp_details&popup=1&item=3387",
    "lon": 1.553564,
    "lat": 42.531033,
    "alt": 1637
  },
  {
    "dhv_id": "2696",
    "name": "Beklemeto 1",
    "desc": "Beklemeto SP 1, GS und HG, N-NO",
    "dhv_link": "https://www.dhv.de/db2/details.php?qi=glp_details&popup=1&item=2696",
    "lon": 24.614803,
    "lat": 42.777164,
    "alt": 1580
  },
  {
    "dhv_id": "2696",
    "name": "Beklemeto 2",
    "desc": "Beklemeto SP 2, GS und HG, S",
    "dhv_link": "https://www.dhv.de/db2/details.php?qi=glp_details&popup=1&item=2696",
    "lon": 24.612644,
    "lat": 42.741461,
    "alt": 1198
  },
  {
    "dhv_id": "5703",
    "name": "Belalp 1 (Sommer)",
    "desc": "Belalp SP 1 (Sommer), GS und HG, SO",
    "dhv_link": "https://www.dhv.de/db2/details.php?qi=glp_details&popup=1&item=5703",
    "lon": 7.975369,
    "lat": 46.3714,
    "alt": 2051
  },
  {
    "dhv_id": "5703",
    "name": "Belalp 2 (Winter)",
    "desc": "Belalp SP 2 (Winter), GS und HG, SO",
    "dhv_link": "https://www.dhv.de/db2/details.php?qi=glp_details&popup=1&item=5703",
    "lon": 7.965278,
    "lat": 46.402936,
    "alt": 3021
  },
  {
    "dhv_id": "5654",
    "name": "Belar",
    "desc": "Belar SP, GS und HG, N",
    "dhv_link": "https://www.dhv.de/db2/details.php?qi=glp_details&popup=1&item=5654",
    "lon": -2.421783,
    "lat": 43.004892,
    "alt": 879
  },
  {
    "dhv_id": "4962",
    "name": "Belesta",
    "desc": "Belesta SP, GS und HG, NW",
    "dhv_link": "https://www.dhv.de/db2/details.php?qi=glp_details&popup=1&item=4962",
    "lon": 1.96385,
    "lat": 42.899958,
    "alt": 908
  },
  {
    "dhv_id": "5063",
    "name": "Belfahy",
    "desc": "Belfahy SP, GS, SO-S",
    "dhv_link": "https://www.dhv.de/db2/details.php?qi=glp_details&popup=1&item=5063",
    "lon": 6.737758,
    "lat": 47.775092,
    "alt": 811
  },
  {
    "dhv_id": "3585",
    "name": "Beliskij",
    "desc": "Beliskij SP, GS und HG, SO",
    "dhv_link": "https://www.dhv.de/db2/details.php?qi=glp_details&popup=1&item=3585",
    "lon": 43.535086,
    "lat": 52.917725,
    "alt": 190
  },
  {
    "dhv_id": "5200",
    "name": "Bell Hill",
    "desc": "Bell Hill SP, GS, NW",
    "dhv_link": "https://www.dhv.de/db2/details.php?qi=glp_details&popup=1&item=5200",
    "lon": -2.288567,
    "lat": 50.875814,
    "alt": 236
  },
  {
    "dhv_id": "1930",
    "name": "Bella Nova 1",
    "desc": "Bella Nova SP 1, GS, W-NW",
    "dhv_link": "https://www.dhv.de/db2/details.php?qi=glp_details&popup=1&item=1930",
    "lon": 9.964703,
    "lat": 46.985528,
    "alt": 2120
  },
  {
    "dhv_id": "1624",
    "name": "Bellalui",
    "desc": "Bellalui SP, GS, NO-W",
    "dhv_link": "https://www.dhv.de/db2/details.php?qi=glp_details&popup=1&item=1624",
    "lon": 7.48585,
    "lat": 46.344289,
    "alt": 2505
  },
  {
    "dhv_id": "5175",
    "name": "Bellmunt",
    "desc": "Bellmunt SP, GS und HG, SW",
    "dhv_link": "https://www.dhv.de/db2/details.php?qi=glp_details&popup=1&item=5175",
    "lon": 2.293558,
    "lat": 42.099956,
    "alt": 1160
  },
  {
    "dhv_id": "5443",
    "name": "Bellon",
    "desc": "Bellon SP, GS, S",
    "dhv_link": "https://www.dhv.de/db2/details.php?qi=glp_details&popup=1&item=5443",
    "lon": 7.230286,
    "lat": 45.729317,
    "alt": 1517
  },
  {
    "dhv_id": "5055",
    "name": "Belmont",
    "desc": "Belmont SP, GS und HG, SW",
    "dhv_link": "https://www.dhv.de/db2/details.php?qi=glp_details&popup=1&item=5055",
    "lon": 7.238944,
    "lat": 48.419183,
    "alt": 927
  },
  {
    "dhv_id": "2208",
    "name": "Belvedere Serre-Poncon",
    "desc": "Belvedere Serre-Poncon SP, GS und HG, SW-W, O-SO",
    "dhv_link": "https://www.dhv.de/db2/details.php?qi=glp_details&popup=1&item=2208",
    "lon": 6.235492,
    "lat": 44.584033,
    "alt": 1569
  },
  {
    "dhv_id": "3143",
    "name": "Belvedere",
    "desc": "Belvedere SP, GS und HG, SO",
    "dhv_link": "https://www.dhv.de/db2/details.php?qi=glp_details&popup=1&item=3143",
    "lon": 5.936789,
    "lat": 46.503381,
    "alt": 907
  },
  {
    "dhv_id": "1242",
    "name": "Belvedere 1",
    "desc": "Belvedere SP 1, GS und HG, W-NW",
    "dhv_link": "https://www.dhv.de/db2/details.php?qi=glp_details&popup=1&item=1242",
    "lon": 11.794556,
    "lat": 46.482778,
    "alt": 2076
  },
  {
    "dhv_id": "1242",
    "name": "Belvedere 2",
    "desc": "Belvedere SP 2, GS und HG, SW, NW",
    "dhv_link": "https://www.dhv.de/db2/details.php?qi=glp_details&popup=1&item=1242",
    "lon": 11.801906,
    "lat": 46.474211,
    "alt": 2348
  },
  {
    "dhv_id": "4687",
    "name": "Benafatima",
    "desc": "Benafatima SP, GS, NO",
    "dhv_link": "https://www.dhv.de/db2/details.php?qi=glp_details&popup=1&item=4687",
    "lon": -8.440636,
    "lat": 37.369867,
    "alt": 321
  },
  {
    "dhv_id": "2994",
    "name": "Benalmadena",
    "desc": "Benalmadena SP, GS, SO",
    "dhv_link": "https://www.dhv.de/db2/details.php?qi=glp_details&popup=1&item=2994",
    "lon": -4.558819,
    "lat": 36.614594,
    "alt": 676
  },
  {
    "dhv_id": "4252",
    "name": "Benbragah",
    "desc": "Benbradagh, Benbragah SP, GS, SW-W",
    "dhv_link": "https://www.dhv.de/db2/details.php?qi=glp_details&popup=1&item=4252",
    "lon": -6.865139,
    "lat": 54.935344,
    "alt": 413
  },
  {
    "dhv_id": "1625",
    "name": "Bendolla 1",
    "desc": "Bendolla SP 1, GS, NO",
    "dhv_link": "https://www.dhv.de/db2/details.php?qi=glp_details&popup=1&item=1625",
    "lon": 7.555378,
    "lat": 46.177811,
    "alt": 2226
  },
  {
    "dhv_id": "1625",
    "name": "Bendolla 2",
    "desc": "Bendolla SP 2, GS, SO-S",
    "dhv_link": "https://www.dhv.de/db2/details.php?qi=glp_details&popup=1&item=1625",
    "lon": 7.559067,
    "lat": 46.184528,
    "alt": 2201
  },
  {
    "dhv_id": "3093",
    "name": "Benevise",
    "desc": "Benevise SP, GS und HG, SO-SW",
    "dhv_link": "https://www.dhv.de/db2/details.php?qi=glp_details&popup=1&item=3093",
    "lon": 6.685633,
    "lat": 47.922922,
    "alt": 800
  },
  {
    "dhv_id": "3890",
    "name": "Benijo",
    "desc": "Benijo SP, GS, N",
    "dhv_link": "https://www.dhv.de/db2/details.php?qi=glp_details&popup=1&item=3890",
    "lon": -16.183189,
    "lat": 28.573336,
    "alt": 238
  },
  {
    "dhv_id": "5203",
    "name": "Benimel",
    "desc": "Benimel SP, GS, W",
    "dhv_link": "https://www.dhv.de/db2/details.php?qi=glp_details&popup=1&item=5203",
    "lon": 4.059514,
    "lat": 40.051178,
    "alt": 86
  },
  {
    "dhv_id": "3382",
    "name": "Benlevy",
    "desc": "Benlevy SP, GS, S-SW",
    "dhv_link": "https://www.dhv.de/db2/details.php?qi=glp_details&popup=1&item=3382",
    "lon": -9.409656,
    "lat": 53.5285,
    "alt": 297
  },
  {
    "dhv_id": "3147",
    "name": "Berce la Ville",
    "desc": "Berce la Ville SP, GS und HG, SW",
    "dhv_link": "https://www.dhv.de/db2/details.php?qi=glp_details&popup=1&item=3147",
    "lon": 4.704639,
    "lat": 46.367836,
    "alt": 431
  },
  {
    "dhv_id": "4033",
    "name": "Berehowe",
    "desc": "Berehowe SP, GS, W",
    "dhv_link": "https://www.dhv.de/db2/details.php?qi=glp_details&popup=1&item=4033",
    "lon": 33.613781,
    "lat": 44.908353,
    "alt": 13
  },
  {
    "dhv_id": "2926",
    "name": "Berga",
    "desc": "Berga SP, GS und HG, SO",
    "dhv_link": "https://www.dhv.de/db2/details.php?qi=glp_details&popup=1&item=2926",
    "lon": 1.814114,
    "lat": 42.088808,
    "alt": 995
  },
  {
    "dhv_id": "946",
    "name": "Bergäcker-Langenberg",
    "desc": "Bergäcker-Langenberg SP, GS, N-NO",
    "dhv_link": "https://www.dhv.de/db2/details.php?qi=glp_details&popup=1&item=946",
    "lon": 10.443106,
    "lat": 49.765494,
    "alt": 435
  },
  {
    "dhv_id": "2032",
    "name": "Bergeggi",
    "desc": "Bergeggi SP, GS und HG, SO",
    "dhv_link": "https://www.dhv.de/db2/details.php?qi=glp_details&popup=1&item=2032",
    "lon": 8.440178,
    "lat": 44.251478,
    "alt": 275
  },
  {
    "dhv_id": "1090",
    "name": "Bergehalde Ensdorf",
    "desc": "Bergehalde Ensdorf SP, GS, S",
    "dhv_link": "https://www.dhv.de/db2/details.php?qi=glp_details&popup=1&item=1090",
    "lon": 6.785388,
    "lat": 49.317031,
    "alt": 320
  },